,EU_circo,code_région,nom_région,chef.lieu_région,numéro_département,nom_département,préfecture,numéro_circonscription,nom_commune,codes_postaux,CODGEO,latitude,longitude,éloignement,LIBGEO,REG,DEP,E14TST,E14TS0ND,E14TS1,E14TS6,E14TS10,E14TS20,E14TS50,E14TS100,E14TS200,E14TS500,SNHM14,SNHMC14,SNHMP14,SNHME14,SNHMO14,SNHMF14,SNHMFC14,SNHMFP14,SNHMFE14,SNHMFO14,SNHMH14,SNHMHC14,SNHMHP14,SNHMHE14,SNHMHO14,SNHM1814,SNHM2614,SNHM5014,SNHMF1814,SNHMF2614,SNHMF5014,SNHMH1814,SNHMH2614,SNHMH5014,salaire_categorie
0,Sud-Est,82,Rhône-Alpes,Lyon,01,Ain,Bourg-en-Bresse,1,Attignat,01340,01024,46.283333,5.166667,1.21,Attignat,82.0,01,116.0,79.0,28.0,4.0,0.0,1.0,1.0,3.0,0.0,0.0,12.9,21.8,14.1,11.0,11.3,11.4,19.0,13.0,10.3,9.9,13.8,23.0,14.7,13.2,11.6,9.6,12.9,14.2,9.3,11.4,12.2,9.7,13.8,15.9,quantile 2
5,Sud-Est,82,Rhône-Alpes,Lyon,01,Ain,Bourg-en-Bresse,1,Bourg-en-Bresse,01000,01053,46.2,5.216667,1.0,Bourg-en-Bresse,82.0,01,3103.0,1722.0,911.0,165.0,159.0,87.0,36.0,13.0,8.0,2.0,12.4,22.8,13.8,10.2,10.3,11.4,20.1,13.1,10.0,8.6,13.1,24.2,14.3,10.7,10.7,9.5,12.2,14.6,9.1,11.2,13.2,9.8,12.9,15.8,quantile 2
8,Sud-Est,82,Rhône-Alpes,Lyon,01,Ain,Bourg-en-Bresse,1,Ceyzériat,01250,01072,46.166667,5.316667,1.15,Ceyzériat,82.0,01,188.0,114.0,47.0,9.0,9.0,4.0,5.0,0.0,0.0,0.0,14.0,25.0,14.4,10.6,10.8,12.4,21.1,13.4,10.4,9.1,15.2,26.9,15.1,11.4,11.2,9.9,13.9,15.7,9.1,12.5,13.2,10.6,14.8,17.8,quantile 3
37,Sud-Est,82,Rhône-Alpes,Lyon,01,Ain,Bourg-en-Bresse,1,Marboz,01851,01232,46.333333,5.25,1.51,Marboz,82.0,01,130.0,93.0,29.0,3.0,3.0,1.0,1.0,0.0,0.0,0.0,12.7,23.0,14.0,10.4,10.5,11.3,19.3,13.2,10.1,7.9,13.8,24.6,14.7,11.7,11.1,9.2,12.7,14.2,9.2,11.0,12.5,9.3,13.7,15.6,quantile 2
43,Sud-Est,82,Rhône-Alpes,Lyon,01,Ain,Bourg-en-Bresse,1,Montrevel-en-Bresse,01340,01266,46.333333,5.133333,1.51,Montrevel-en-Bresse,82.0,01,185.0,93.0,61.0,11.0,10.0,10.0,0.0,0.0,0.0,0.0,12.0,20.8,14.3,10.0,10.9,10.9,19.8,13.2,9.9,9.4,12.8,21.4,15.1,10.8,11.4,9.7,12.0,13.1,9.4,10.9,11.6,9.8,12.9,14.4,quantile 1
45,Sud-Est,82,Rhône-Alpes,Lyon,01,Ain,Bourg-en-Bresse,1,Péronnas,01960,01289,46.183333,5.2,0.6,Péronnas,82.0,01,420.0,227.0,119.0,29.0,20.0,17.0,5.0,2.0,0.0,1.0,13.4,23.4,14.3,10.7,11.2,12.2,22.3,13.1,10.5,9.6,14.4,23.9,15.5,11.5,11.5,9.6,13.4,15.1,9.5,12.3,13.0,9.8,14.3,16.7,quantile 3
47,Sud-Est,82,Rhône-Alpes,Lyon,01,Ain,Bourg-en-Bresse,1,Polliat,01310,01301,46.25,5.133333,1.01,Polliat,82.0,01,123.0,79.0,31.0,8.0,1.0,4.0,0.0,0.0,0.0,0.0,13.1,23.5,14.1,10.5,11.3,11.6,18.1,13.6,10.1,9.7,14.2,26.3,14.5,11.9,11.6,9.6,12.9,14.9,9.4,11.6,12.5,9.8,13.8,16.8,quantile 2
48,Sud-Est,82,Rhône-Alpes,Lyon,01,Ain,Bourg-en-Bresse,1,Pont-d'Ain,01160,01304,46.05,5.333333,0.52,Pont-d'Ain,82.0,01,206.0,129.0,53.0,9.0,11.0,2.0,2.0,0.0,0.0,0.0,12.9,21.7,14.6,10.3,11.0,11.4,17.5,13.3,10.2,9.7,13.8,23.1,15.3,10.5,11.3,9.5,13.0,14.3,9.3,11.5,12.0,9.6,13.9,15.5,quantile 2
55,Sud-Est,82,Rhône-Alpes,Lyon,01,Ain,Bourg-en-Bresse,1,Saint-Denis-lès-Bourg,01000,01344,46.2,5.2,1.0,Saint-Denis-lès-Bourg,82.0,01,295.0,175.0,74.0,24.0,13.0,5.0,4.0,0.0,0.0,0.0,13.9,23.1,14.6,10.9,11.5,12.4,21.5,13.6,10.5,9.8,15.1,23.7,15.3,12.1,11.8,9.8,13.6,16.0,9.4,12.3,13.7,10.1,14.6,17.9,quantile 3
57,Sud-Est,82,Rhône-Alpes,Lyon,01,Ain,Bourg-en-Bresse,1,Saint-Etienne-du-Bois,01370,01350,46.283333,5.283333,1.21,Saint-Étienne-du-Bois,82.0,01,113.0,63.0,36.0,5.0,6.0,2.0,1.0,0.0,0.0,0.0,13.1,23.7,13.7,10.5,11.2,11.6,21.2,12.2,10.4,9.7,14.1,24.6,15.0,10.8,11.5,9.4,13.1,14.8,8.9,11.6,12.9,9.7,14.3,15.8,quantile 2
80,Sud-Est,82,Rhône-Alpes,Lyon,01,Ain,Bourg-en-Bresse,1,Viriat,01440,01451,46.25,5.216667,1.01,Viriat,82.0,01,503.0,238.0,129.0,50.0,40.0,31.0,11.0,4.0,0.0,0.0,13.3,23.7,14.2,11.0,11.3,12.0,18.8,13.5,10.6,9.8,14.3,25.9,14.8,12.3,11.5,9.9,13.0,15.3,9.5,11.7,13.2,10.1,13.9,16.7,quantile 3
81,Sud-Est,82,Rhône-Alpes,Lyon,01,Ain,Bourg-en-Bresse,2,Ambérieu-en-Bugey,01500,01004,45.95,5.35,0.8,Ambérieu-en-Bugey,82.0,01,996.0,577.0,272.0,63.0,46.0,24.0,9.0,3.0,2.0,0.0,13.7,24.2,15.5,10.3,11.2,11.6,19.1,13.2,10.1,9.6,15.0,26.4,16.7,11.0,11.6,10.5,13.7,16.1,9.7,11.8,12.5,11.0,14.9,18.6,quantile 3
82,Sud-Est,82,Rhône-Alpes,Lyon,01,Ain,Bourg-en-Bresse,2,Ambronay,01500,01007,46.0,5.35,1.34,Ambronay,82.0,01,124.0,87.0,20.0,10.0,5.0,2.0,0.0,0.0,0.0,0.0,13.5,22.1,14.7,10.7,11.4,11.9,19.0,13.3,10.6,10.0,14.7,23.3,15.8,11.3,11.7,9.8,13.8,14.6,9.2,12.2,12.5,10.2,14.9,16.4,quantile 3
85,Sud-Est,82,Rhône-Alpes,Lyon,01,Ain,Bourg-en-Bresse,2,Arbent,01100,01014,46.3,5.683333,1.39,Arbent,82.0,01,314.0,130.0,97.0,33.0,28.0,16.0,5.0,5.0,0.0,0.0,13.5,27.6,15.6,11.1,11.1,10.9,19.5,11.7,10.8,9.5,15.3,30.2,17.2,12.4,11.8,9.3,13.3,16.0,8.9,10.6,12.5,9.6,15.1,18.6,quantile 3
86,Sud-Est,82,Rhône-Alpes,Lyon,01,Ain,Bourg-en-Bresse,2,Balan,01360,01027,45.833333,5.1,1.51,Balan,82.0,01,109.0,66.0,27.0,6.0,6.0,0.0,2.0,2.0,0.0,0.0,13.9,22.2,15.1,11.0,11.4,12.5,20.3,14.0,10.9,10.5,15.2,23.1,15.9,12.1,11.7,9.7,14.1,15.4,9.5,12.8,13.0,9.9,15.3,17.2,quantile 3
87,Sud-Est,82,Rhône-Alpes,Lyon,01,Ain,Bourg-en-Bresse,2,Béligneux,01360,01032,45.866667,5.116667,1.31,Béligneux,82.0,01,177.0,92.0,53.0,9.0,11.0,12.0,0.0,0.0,0.0,0.0,14.0,23.1,15.3,10.9,11.3,12.4,20.5,13.9,10.7,10.3,15.4,24.4,16.3,11.8,11.6,9.7,13.9,16.7,9.7,12.4,13.8,9.6,15.0,19.3,quantile 3
89,Sud-Est,82,Rhône-Alpes,Lyon,01,Ain,Bourg-en-Bresse,2,Bellignat,01810,01031,46.25,5.616667,1.5,Bellignat,82.0,01,252.0,112.0,80.0,24.0,18.0,11.0,4.0,3.0,0.0,0.0,12.4,24.0,13.1,10.5,10.4,10.9,20.7,11.8,10.4,9.3,13.4,25.2,13.8,10.8,10.8,9.3,12.5,13.3,8.9,11.0,11.5,9.6,13.3,14.9,quantile 2
104,Sud-Est,82,Rhône-Alpes,Lyon,01,Ain,Bourg-en-Bresse,2,Dagneux,01120,01142,45.85,5.066667,1.41,Dagneux,82.0,01,272.0,158.0,64.0,18.0,15.0,13.0,3.0,0.0,1.0,0.0,14.3,22.8,15.0,11.1,11.8,12.8,20.9,14.4,10.6,10.5,15.2,23.7,15.4,12.3,12.0,9.5,14.4,16.2,9.0,13.0,13.4,9.7,15.3,18.0,quantile 3
112,Sud-Est,82,Rhône-Alpes,Lyon,01,Ain,Bourg-en-Bresse,2,Izernore,01580,01192,46.216667,5.55,0.8,Izernore,82.0,01,156.0,71.0,44.0,12.0,13.0,9.0,4.0,3.0,0.0,0.0,12.9,24.5,14.1,10.5,10.8,10.8,17.8,12.8,10.2,9.2,14.4,26.6,14.9,11.6,11.5,9.5,13.0,14.3,9.2,11.1,10.6,9.8,14.4,16.2,quantile 2
114,Sud-Est,82,Rhône-Alpes,Lyon,01,Ain,Bourg-en-Bresse,2,Jujurieux,01640,01199,46.033333,5.416667,0.72,Jujurieux,82.0,01,110.0,82.0,16.0,4.0,4.0,2.0,2.0,0.0,0.0,0.0,12.7,21.7,13.3,10.8,11.1,11.5,19.7,12.1,10.4,9.5,13.6,22.7,14.2,12.4,11.4,9.8,12.8,14.0,8.8,11.4,12.8,10.5,13.7,15.1,quantile 2
117,Sud-Est,82,Rhône-Alpes,Lyon,01,Ain,Bourg-en-Bresse,2,La Boisse,01120,01049,45.85,5.033333,1.41,La Boisse,82.0,01,195.0,135.0,36.0,10.0,8.0,3.0,2.0,0.0,1.0,0.0,15.8,25.7,16.0,11.3,11.7,13.5,23.2,14.7,10.9,10.2,17.4,26.5,17.0,12.6,12.0,9.6,16.1,17.5,8.8,14.2,14.1,10.2,17.4,19.9,quantile 4
118,Sud-Est,82,Rhône-Alpes,Lyon,01,Ain,Bourg-en-Bresse,2,Lagnieu,01150,01202,45.9,5.35,1.11,Lagnieu,82.0,01,394.0,278.0,83.0,11.0,16.0,3.0,1.0,1.0,1.0,0.0,13.8,24.4,15.5,10.6,11.4,11.6,20.4,13.3,10.3,10.1,15.2,25.7,16.8,11.7,11.9,10.2,13.7,16.2,9.3,11.8,12.4,10.7,14.9,18.8,quantile 3
125,Sud-Est,82,Rhône-Alpes,Lyon,01,Ain,Bourg-en-Bresse,2,Loyettes,01360,01224,45.766667,5.2,2.27,Loyettes,82.0,01,170.0,109.0,39.0,8.0,5.0,5.0,4.0,0.0,0.0,0.0,13.4,23.1,14.9,11.0,11.3,11.7,18.8,13.4,10.5,10.2,14.7,25.0,15.7,13.1,11.6,10.1,13.6,14.5,9.6,11.9,11.9,10.5,14.8,16.3,quantile 3
130,Sud-Est,82,Rhône-Alpes,Lyon,01,Ain,Bourg-en-Bresse,2,Meximieux,01800,01244,45.9,5.2,1.11,Meximieux,82.0,01,516.0,320.0,144.0,25.0,17.0,9.0,0.0,1.0,0.0,0.0,15.5,25.5,16.4,11.1,11.2,13.0,23.0,13.6,10.6,9.9,17.1,26.4,17.9,12.8,11.6,10.8,15.6,17.9,9.5,13.1,14.7,11.7,17.2,19.9,quantile 4
131,Sud-Est,82,Rhône-Alpes,Lyon,01,Ain,Bourg-en-Bresse,2,Montluel,01120,01262,45.85,5.05,1.41,Montluel,82.0,01,395.0,267.0,94.0,15.0,10.0,6.0,1.0,1.0,0.0,1.0,14.2,24.3,14.6,11.1,11.3,12.5,20.7,13.4,10.7,10.0,15.3,26.1,15.3,12.6,11.6,9.8,14.3,16.4,9.5,12.8,13.3,10.0,15.2,18.8,quantile 3
133,Sud-Est,82,Rhône-Alpes,Lyon,01,Ain,Bourg-en-Bresse,2,Nantua,01130,01269,46.15,5.616667,1.6,Nantua,82.0,01,231.0,150.0,55.0,12.0,8.0,3.0,3.0,0.0,0.0,0.0,12.1,28.3,13.4,10.1,10.3,10.9,25.2,12.3,9.9,9.4,12.7,29.4,13.9,10.7,10.6,9.6,12.0,14.1,8.7,10.9,12.4,10.1,12.6,15.1,quantile 1
136,Sud-Est,82,Rhône-Alpes,Lyon,01,Ain,Bourg-en-Bresse,2,Oyonnax,01100,01283,46.25,5.666667,1.1,Oyonnax,82.0,01,1516.0,857.0,444.0,80.0,78.0,36.0,14.0,6.0,1.0,0.0,12.1,24.5,14.4,10.4,10.2,10.7,20.1,12.5,10.4,9.3,13.0,26.2,15.3,10.6,10.6,9.3,11.9,14.1,9.1,10.6,11.8,9.4,12.6,15.7,quantile 1
144,Sud-Est,82,Rhône-Alpes,Lyon,01,Ain,Bourg-en-Bresse,2,Saint-Denis-en-Bugey,01500,01345,45.95,5.333333,0.8,Saint-Denis-en-Bugey,82.0,01,89.0,69.0,17.0,3.0,0.0,0.0,0.0,0.0,0.0,0.0,13.2,23.5,14.9,10.7,11.5,11.5,19.3,13.1,10.4,10.0,14.5,25.4,15.9,11.6,12.0,10.0,13.2,15.2,9.7,11.4,12.4,10.1,14.5,17.2,quantile 3
151,Sud-Est,82,Rhône-Alpes,Lyon,01,Ain,Bourg-en-Bresse,2,Saint-Maurice-de-Gourdans,01800,01378,45.816667,5.2,1.61,Saint-Maurice-de-Gourdans,82.0,01,109.0,80.0,23.0,1.0,4.0,0.0,1.0,0.0,0.0,0.0,15.6,23.6,15.2,11.9,12.0,13.9,20.6,13.9,11.3,9.9,16.9,25.5,16.3,13.9,12.4,9.8,15.7,17.6,9.7,14.3,14.1,9.9,16.7,20.6,quantile 4
172,Sud-Est,82,Rhône-Alpes,Lyon,01,Ain,Bourg-en-Bresse,3,Bellegarde-sur-Valserine,01200,01033,46.1,5.816667,1.61,Bellegarde-sur-Valserine,82.0,01,655.0,373.0,203.0,36.0,21.0,16.0,4.0,2.0,0.0,0.0,11.5,21.2,13.5,9.9,10.5,10.3,20.8,12.3,9.8,9.0,12.3,21.3,14.2,10.5,11.0,9.6,11.5,12.7,9.2,10.3,11.3,10.0,12.3,13.9,quantile 1
173,Sud-Est,82,Rhône-Alpes,Lyon,01,Ain,Bourg-en-Bresse,3,Belley,01300,01034,45.766667,5.683333,1.91,Belley,82.0,01,708.0,421.0,191.0,40.0,25.0,18.0,8.0,3.0,2.0,0.0,12.4,23.4,14.1,10.3,10.5,11.0,21.5,13.0,9.9,9.5,13.2,24.0,14.9,11.6,10.9,9.7,12.3,13.7,9.3,11.2,11.4,9.9,13.0,15.4,quantile 2
183,Sud-Est,82,Rhône-Alpes,Lyon,01,Ain,Bourg-en-Bresse,3,Cessy,01170,01071,46.316667,6.066667,2.46,Cessy,82.0,01,181.0,115.0,47.0,11.0,4.0,4.0,0.0,0.0,0.0,0.0,13.5,25.3,13.3,10.8,11.9,12.2,19.5,12.2,10.8,13.0,14.7,29.1,14.7,10.6,11.8,9.5,13.8,16.5,9.2,13.0,12.7,9.9,14.4,19.7,quantile 3
191,Sud-Est,82,Rhône-Alpes,Lyon,01,Ain,Bourg-en-Bresse,3,Châtillon-en-Michaille,01200,01091,46.133333,5.783333,1.5,Châtillon-en-Michaille,82.0,01,193.0,114.0,51.0,11.0,6.0,7.0,2.0,1.0,1.0,0.0,13.0,24.6,14.2,10.5,11.3,11.0,20.2,12.9,10.2,9.1,14.5,25.9,15.2,11.4,12.0,9.2,12.8,15.6,9.0,11.2,11.7,9.3,14.3,18.1,quantile 2
199,Sud-Est,82,Rhône-Alpes,Lyon,01,Ain,Bourg-en-Bresse,3,Collonges,01550,01109,46.133333,5.9,1.89,Collonges,82.0,01,75.0,59.0,13.0,2.0,1.0,0.0,0.0,0.0,0.0,0.0,12.8,21.9,14.9,9.9,13.1,11.2,20.0,12.8,10.0,9.4,14.4,23.1,16.0,9.6,13.7,10.1,13.7,12.8,9.9,11.6,11.1,10.3,15.8,13.8,quantile 2
212,Sud-Est,82,Rhône-Alpes,Lyon,01,Ain,Bourg-en-Bresse,3,Culoz,01350,01138,45.85,5.783333,1.5,Culoz,82.0,01,176.0,119.0,44.0,4.0,2.0,4.0,2.0,0.0,0.0,1.0,12.3,21.8,13.5,10.0,11.3,10.5,18.5,12.1,9.8,9.7,13.5,22.3,14.5,10.7,11.8,9.9,12.1,13.7,8.8,10.2,11.6,10.7,13.3,15.3,quantile 2
214,Sud-Est,82,Rhône-Alpes,Lyon,01,Ain,Bourg-en-Bresse,3,Divonne-les-Bains,01220,01143,46.366667,6.133333,2.69,Divonne-les-Bains,82.0,01,534.0,373.0,125.0,17.0,13.0,4.0,0.0,1.0,1.0,0.0,16.7,37.6,14.0,10.8,14.5,13.5,29.5,12.9,10.7,10.3,19.2,41.2,15.4,10.9,15.6,9.5,15.8,24.0,9.3,14.6,13.8,9.7,16.7,30.7,quantile 4
218,Sud-Est,82,Rhône-Alpes,Lyon,01,Ain,Bourg-en-Bresse,3,Ferney-Voltaire,01210,01160,46.25,6.116667,2.63,Ferney-Voltaire,82.0,01,665.0,394.0,182.0,43.0,26.0,14.0,4.0,2.0,0.0,0.0,12.8,26.5,14.7,10.6,10.5,12.1,24.4,13.4,10.6,9.2,13.5,27.9,15.9,10.5,10.8,9.1,12.5,16.2,8.8,11.9,14.9,9.4,13.1,17.5,quantile 2
220,Sud-Est,82,Rhône-Alpes,Lyon,01,Ain,Bourg-en-Bresse,3,Gex,01170,01173,46.333333,6.066667,2.46,Gex,82.0,01,494.0,342.0,114.0,25.0,6.0,6.0,1.0,0.0,0.0,0.0,12.6,23.5,13.7,10.4,11.5,11.6,19.7,12.9,10.2,10.0,13.6,26.1,14.5,10.7,11.8,9.9,12.9,14.2,9.7,12.0,12.2,10.2,13.7,16.2,quantile 2
224,Sud-Est,82,Rhône-Alpes,Lyon,01,Ain,Bourg-en-Bresse,3,Hauteville-Lompnes,01110,01185,45.966667,5.6,0.87,Hauteville-Lompnes,82.0,01,238.0,132.0,78.0,10.0,10.0,5.0,1.0,1.0,1.0,0.0,12.0,27.8,12.7,10.0,10.6,11.1,26.1,12.2,9.8,9.2,12.7,28.3,13.2,10.5,10.8,9.5,11.6,14.4,9.6,10.7,12.7,9.4,12.2,15.5,quantile 1
256,Sud-Est,82,Rhône-Alpes,Lyon,01,Ain,Bourg-en-Bresse,3,Ornex,01210,01281,46.283333,6.1,2.58,Ornex,82.0,01,147.0,103.0,30.0,7.0,4.0,3.0,0.0,0.0,0.0,0.0,13.4,25.6,15.0,11.0,12.4,12.7,24.9,13.4,11.0,9.7,14.0,26.0,17.0,10.8,12.6,9.6,13.3,16.6,9.5,12.8,14.5,9.8,13.7,18.6,quantile 3
259,Sud-Est,82,Rhône-Alpes,Lyon,01,Ain,Bourg-en-Bresse,3,Péron,01630,01288,46.2,5.933333,2.01,Péron,82.0,01,80.0,57.0,16.0,2.0,4.0,1.0,0.0,0.0,0.0,0.0,13.3,23.5,14.5,10.1,11.9,11.6,21.0,12.7,10.1,9.6,14.8,25.1,15.4,10.1,12.2,9.8,13.9,13.9,9.3,12.3,11.5,10.3,15.2,16.1,quantile 3
266,Sud-Est,82,Rhône-Alpes,Lyon,01,Ain,Bourg-en-Bresse,3,Prévessin-Moëns,01280,01313,46.25,6.083333,2.52,Prévessin-Moëns,82.0,01,203.0,155.0,34.0,6.0,7.0,1.0,0.0,0.0,0.0,0.0,14.3,31.2,13.3,10.7,11.8,13.3,26.4,12.1,10.5,9.2,15.2,36.0,14.5,11.1,12.1,9.6,14.2,18.4,9.6,13.7,15.5,9.6,14.7,20.3,quantile 3
273,Sud-Est,82,Rhône-Alpes,Lyon,01,Ain,Bourg-en-Bresse,3,Saint-Genis-Pouilly,01630,01354,46.25,6.016667,2.29,Saint-Genis-Pouilly,82.0,01,543.0,329.0,128.0,38.0,27.0,16.0,5.0,0.0,0.0,0.0,12.4,24.1,13.2,10.3,11.3,11.7,22.9,12.7,10.4,9.6,13.0,24.8,13.5,10.1,11.6,9.7,12.6,14.1,9.3,12.1,12.7,10.1,13.0,15.2,quantile 2
278,Sud-Est,82,Rhône-Alpes,Lyon,01,Ain,Bourg-en-Bresse,3,Saint-Rambert-en-Bugey,01230,01384,45.95,5.433333,0.88,Saint-Rambert-en-Bugey,82.0,01,134.0,97.0,28.0,1.0,3.0,3.0,2.0,0.0,0.0,0.0,11.7,19.5,14.3,9.9,10.7,10.9,20.2,12.1,9.9,10.0,12.1,19.2,15.2,10.1,10.9,9.5,11.8,12.1,9.1,10.7,11.7,9.8,12.3,12.5,quantile 1
306,Sud-Est,82,Rhône-Alpes,Lyon,01,Ain,Bourg-en-Bresse,4,Bâgé-la-Ville,01380,01025,46.316667,4.95,1.41,Bâgé-la-Ville,82.0,01,101.0,79.0,12.0,7.0,3.0,0.0,0.0,0.0,0.0,0.0,13.0,22.8,14.1,10.5,11.1,11.6,19.4,13.6,10.2,9.8,13.8,24.1,14.4,11.7,11.4,9.4,12.8,15.2,9.0,11.8,12.3,9.7,13.4,16.9,quantile 2
311,Sud-Est,82,Rhône-Alpes,Lyon,01,Ain,Bourg-en-Bresse,4,Beynost,01700,01043,45.833333,5.0,1.51,Beynost,82.0,01,480.0,262.0,133.0,37.0,25.0,16.0,2.0,3.0,1.0,1.0,17.4,27.5,15.8,11.8,12.0,14.8,22.5,14.6,11.5,9.9,19.5,30.4,17.0,12.6,12.4,10.0,17.3,20.4,9.4,15.5,15.0,10.5,18.7,24.5,quantile 4
317,Sud-Est,82,Rhône-Alpes,Lyon,01,Ain,Bourg-en-Bresse,4,Chalamont,01320,01074,46.0,5.166667,0.65,Chalamont,82.0,01,155.0,106.0,37.0,3.0,6.0,2.0,1.0,0.0,0.0,0.0,13.7,26.8,14.4,10.4,11.1,11.5,20.6,12.4,10.1,10.1,15.1,29.1,15.6,11.5,11.3,9.3,13.6,17.4,8.8,11.9,12.2,9.7,14.6,21.3,quantile 3
323,Sud-Est,82,Rhône-Alpes,Lyon,01,Ain,Bourg-en-Bresse,4,Châtillon-sur-Chalaronne,01400,01093,46.116667,4.966667,1.29,Châtillon-sur-Chalaronne,82.0,01,388.0,223.0,112.0,24.0,18.0,8.0,1.0,0.0,2.0,0.0,13.2,23.4,14.0,10.3,11.4,11.6,19.8,12.8,10.1,10.9,14.3,24.7,14.8,10.9,11.5,9.3,13.3,15.1,9.0,11.5,13.1,9.5,14.4,16.6,quantile 3
335,Sud-Est,82,Rhône-Alpes,Lyon,01,Ain,Bourg-en-Bresse,4,Fareins,01480,01157,46.016667,4.766667,1.97,Fareins,82.0,01,167.0,123.0,30.0,6.0,8.0,0.0,0.0,0.0,0.0,0.0,15.3,25.3,15.5,11.1,11.9,12.9,20.3,14.9,10.9,10.1,16.9,27.1,15.8,12.0,12.3,9.4,15.0,18.6,9.0,12.8,14.7,9.7,16.5,21.7,quantile 4
336,Sud-Est,82,Rhône-Alpes,Lyon,01,Ain,Bourg-en-Bresse,4,Feillens,01570,01159,46.333333,4.883333,1.57,Feillens,82.0,01,220.0,130.0,53.0,15.0,12.0,6.0,3.0,0.0,1.0,0.0,12.4,23.1,14.1,10.5,10.5,11.1,20.4,13.1,10.2,9.3,13.2,23.9,14.9,11.3,10.9,9.4,12.2,14.4,8.9,11.1,12.4,9.7,13.0,15.7,quantile 2
345,Sud-Est,82,Rhône-Alpes,Lyon,01,Ain,Bourg-en-Bresse,4,Jassans-Riottier,01480,01194,45.983333,4.75,2.03,Jassans-Riottier,82.0,01,330.0,209.0,84.0,16.0,12.0,5.0,3.0,1.0,0.0,0.0,13.9,24.5,15.1,10.7,11.0,11.9,19.6,13.7,10.5,9.5,15.3,26.2,16.0,11.2,11.4,9.6,13.8,16.0,9.1,12.2,12.3,9.9,14.9,18.6,quantile 3
354,Sud-Est,82,Rhône-Alpes,Lyon,01,Ain,Bourg-en-Bresse,4,Massieux,01600,01238,45.916667,4.833333,1.74,Massieux,82.0,01,138.0,84.0,37.0,8.0,5.0,2.0,1.0,1.0,0.0,0.0,16.6,24.7,17.4,11.8,12.1,14.2,20.4,15.5,11.3,10.7,18.3,26.7,18.8,13.1,12.3,9.4,16.5,19.3,8.8,14.7,14.6,9.8,17.8,22.4,quantile 4
356,Sud-Est,82,Rhône-Alpes,Lyon,01,Ain,Bourg-en-Bresse,4,Mézériat,01660,01246,46.233333,5.033333,1.23,Mézériat,82.0,01,133.0,96.0,29.0,3.0,3.0,2.0,0.0,0.0,0.0,0.0,12.5,22.7,13.6,10.6,10.7,11.3,18.2,12.2,10.2,9.5,13.3,25.3,14.4,11.7,11.0,9.2,12.6,13.7,9.1,11.4,11.8,9.2,13.5,14.7,quantile 2
357,Sud-Est,82,Rhône-Alpes,Lyon,01,Ain,Bourg-en-Bresse,4,Mionnay,01390,01248,45.9,4.933333,1.4,Mionnay,82.0,01,138.0,99.0,29.0,4.0,5.0,1.0,0.0,0.0,0.0,0.0,16.2,25.7,15.3,12.2,11.3,13.7,20.3,14.4,11.5,10.4,18.1,27.7,16.1,13.7,11.5,9.7,17.0,17.0,9.4,14.3,14.0,9.9,19.2,19.1,quantile 4
363,Sud-Est,82,Rhône-Alpes,Lyon,01,Ain,Bourg-en-Bresse,4,Montmerle-sur-Saône,01090,01263,46.083333,4.766667,1.97,Montmerle-sur-Saône,82.0,01,213.0,128.0,59.0,14.0,8.0,1.0,3.0,0.0,0.0,0.0,14.8,24.9,15.0,11.4,11.7,12.5,20.1,13.8,10.8,10.0,16.2,26.7,15.6,13.4,12.0,10.2,14.7,16.5,10.6,12.4,13.3,10.0,16.1,18.5,quantile 4
370,Sud-Est,82,Rhône-Alpes,Lyon,01,Ain,Bourg-en-Bresse,4,Pont-de-Vaux,01190,01305,46.433333,4.933333,2.11,Pont-de-Vaux,82.0,01,245.0,144.0,70.0,13.0,13.0,3.0,1.0,1.0,0.0,0.0,12.0,22.1,13.8,10.7,10.6,11.4,18.6,12.6,11.0,9.7,12.3,23.5,14.5,10.3,10.7,9.3,12.2,13.7,8.8,12.1,11.8,9.7,12.3,14.9,quantile 1
374,Sud-Est,82,Rhône-Alpes,Lyon,01,Ain,Bourg-en-Bresse,4,Replonges,01620,01320,46.3,4.883333,1.57,Replonges,82.0,01,191.0,107.0,47.0,13.0,10.0,12.0,1.0,1.0,0.0,0.0,13.5,22.8,14.6,11.0,11.0,11.7,19.5,13.1,10.6,10.7,14.6,23.7,15.3,12.3,11.1,9.4,13.4,15.2,8.6,12.0,12.2,10.0,14.3,17.2,quantile 3
375,Sud-Est,82,Rhône-Alpes,Lyon,01,Ain,Bourg-en-Bresse,4,Reyrieux,01600,01322,45.933333,4.816667,1.8,Reyrieux,82.0,01,305.0,212.0,57.0,16.0,5.0,7.0,5.0,1.0,1.0,1.0,17.8,28.0,16.5,11.9,12.1,14.3,23.3,13.8,11.5,9.7,20.2,29.9,18.6,13.4,12.4,9.7,17.1,22.0,9.1,14.2,16.4,10.0,19.3,25.4,quantile 4
379,Sud-Est,82,Rhône-Alpes,Lyon,01,Ain,Bourg-en-Bresse,4,Saint-André-de-Corcy,01390,01333,45.916667,4.95,1.34,Saint-André-de-Corcy,82.0,01,244.0,145.0,64.0,15.0,13.0,4.0,3.0,0.0,0.0,0.0,15.0,24.2,15.0,11.4,11.8,13.1,21.8,13.9,10.9,10.3,16.4,25.1,15.9,12.6,12.2,9.6,15.1,17.3,9.3,13.0,15.3,9.8,16.7,19.0,quantile 4
386,Sud-Est,82,Rhône-Alpes,Lyon,01,Ain,Bourg-en-Bresse,4,Saint-Didier-sur-Chalaronne,01140,01348,46.166667,4.816667,1.8,Saint-Didier-sur-Chalaronne,82.0,01,174.0,106.0,44.0,12.0,7.0,3.0,1.0,1.0,0.0,0.0,13.1,24.9,15.0,10.4,11.3,11.3,23.2,12.9,10.1,9.9,14.2,25.4,16.2,11.7,11.6,9.4,13.2,14.3,8.8,11.7,11.2,9.7,14.2,16.0,quantile 2
399,Sud-Est,82,Rhône-Alpes,Lyon,01,Ain,Bourg-en-Bresse,4,Saint-Maurice-de-Beynost,01700,01376,45.833333,4.966667,1.51,Saint-Maurice-de-Beynost,82.0,01,207.0,135.0,35.0,11.0,10.0,8.0,4.0,2.0,2.0,0.0,13.6,23.7,14.9,10.7,11.3,11.9,20.9,13.3,10.6,9.6,14.7,25.2,15.6,11.0,11.9,9.6,13.4,16.2,9.3,12.2,12.7,9.7,14.2,18.9,quantile 3
411,Sud-Est,82,Rhône-Alpes,Lyon,01,Ain,Bourg-en-Bresse,4,Trévoux,01600,01427,45.933333,4.766667,1.97,Trévoux,82.0,01,510.0,333.0,109.0,31.0,21.0,6.0,7.0,2.0,1.0,0.0,14.5,25.3,15.2,11.0,11.0,12.4,21.6,13.4,10.4,9.6,15.7,26.8,16.4,12.4,11.3,9.4,14.3,17.3,9.2,12.8,13.1,9.6,15.2,20.2,quantile 3
415,Sud-Est,82,Rhône-Alpes,Lyon,01,Ain,Bourg-en-Bresse,4,Villars-les-Dombes,01330,01443,46.0,5.016667,1.12,Villars-les-Dombes,82.0,01,307.0,194.0,75.0,16.0,7.0,10.0,4.0,1.0,0.0,0.0,13.3,22.4,14.6,10.6,10.5,11.8,20.0,13.2,10.3,9.1,14.4,23.4,15.5,11.9,10.9,9.2,13.5,15.3,8.5,12.1,12.8,9.7,14.4,17.0,quantile 3
418,Sud-Est,82,Rhône-Alpes,Lyon,01,Ain,Bourg-en-Bresse,4,Vonnas,01540,01457,46.216667,5.0,1.17,Vonnas,82.0,01,201.0,125.0,52.0,7.0,8.0,5.0,3.0,1.0,0.0,0.0,12.4,27.2,13.5,10.0,10.8,11.5,28.2,12.7,9.8,9.8,13.0,26.7,14.0,10.9,11.0,9.2,11.9,15.2,9.1,10.6,14.8,9.3,12.7,15.6,quantile 2
429,Nord-Ouest,22,Picardie,Amiens,02,Aisne,Laon,1,Athies-sous-Laon,02840,02028,49.566667,3.683333,1.27,Athies-sous-Laon,22.0,02,85.0,53.0,20.0,3.0,3.0,4.0,0.0,2.0,0.0,0.0,12.4,20.8,14.3,10.3,10.8,11.5,18.8,12.8,10.4,9.0,13.0,21.8,15.4,9.9,11.1,9.3,12.1,14.4,9.2,11.3,13.3,9.4,12.7,15.0,quantile 2
511,Nord-Ouest,22,Picardie,Amiens,02,Aisne,Laon,1,Guignicourt,02190,02360,49.433333,3.966667,1.92,Guignicourt,22.0,02,107.0,57.0,34.0,6.0,4.0,5.0,0.0,1.0,0.0,0.0,13.3,22.6,14.8,10.7,11.3,12.0,21.0,13.5,10.4,9.8,14.1,23.2,15.7,11.4,11.6,9.4,13.2,15.1,9.4,12.1,12.4,9.3,13.8,16.2,quantile 3
515,Nord-Ouest,22,Picardie,Amiens,02,Aisne,Laon,1,La Fère,02800,02304,49.666667,3.366667,0.7,La Fère,22.0,02,174.0,108.0,48.0,8.0,5.0,5.0,0.0,0.0,0.0,0.0,10.6,21.6,12.6,9.7,9.8,9.4,12.0,10.6,9.8,8.1,11.1,24.2,13.4,9.5,10.1,8.9,10.2,13.1,8.9,9.3,10.5,9.0,10.7,14.1,quantile 1
518,Nord-Ouest,22,Picardie,Amiens,02,Aisne,Laon,1,Laon,02000,02408,49.566667,3.616667,0.72,Laon,22.0,02,1373.0,732.0,433.0,85.0,67.0,37.0,9.0,5.0,5.0,0.0,11.4,21.9,13.1,10.0,9.8,10.8,18.9,12.2,9.9,8.7,11.8,23.5,13.7,10.1,10.0,9.2,11.1,13.5,8.9,10.6,12.3,9.3,11.4,14.4,quantile 1
597,Nord-Ouest,22,Picardie,Amiens,02,Aisne,Laon,1,Saint-Gobain,02410,02680,49.6,3.383333,0.72,Saint-Gobain,22.0,02,86.0,59.0,21.0,3.0,1.0,0.0,2.0,0.0,0.0,0.0,12.6,23.2,14.9,10.1,10.6,10.9,19.0,12.7,9.5,8.6,13.3,24.4,15.9,11.3,10.7,9.5,12.3,14.7,10.1,11.0,11.1,9.1,12.8,16.1,quantile 2
602,Nord-Ouest,22,Picardie,Amiens,02,Aisne,Laon,1,Sissonne,02150,02720,49.566667,3.9,1.62,Sissonne,22.0,02,92.0,62.0,21.0,4.0,1.0,4.0,0.0,0.0,0.0,0.0,10.6,21.2,12.4,9.7,9.9,10.0,20.0,11.9,9.5,8.2,11.1,22.1,12.8,10.1,10.4,9.2,10.5,11.6,9.0,9.6,11.3,9.4,11.1,11.9,quantile 1
754,Nord-Ouest,22,Picardie,Amiens,02,Aisne,Laon,2,Gauchy,02430,02340,49.816667,3.266667,1.14,Gauchy,22.0,02,211.0,108.0,48.0,17.0,14.0,14.0,4.0,4.0,2.0,0.0,12.2,22.2,13.6,10.2,11.3,11.0,18.9,12.4,9.9,10.6,12.9,23.3,14.3,10.8,11.4,9.2,11.9,13.7,8.6,10.8,12.0,9.5,12.6,14.7,quantile 2
797,Nord-Ouest,22,Picardie,Amiens,02,Aisne,Laon,2,Saint-Quentin,02100,02691,49.85,3.283333,1.24,Saint-Quentin,22.0,02,3289.0,1928.0,906.0,180.0,150.0,77.0,35.0,7.0,6.0,0.0,12.3,23.5,13.9,10.0,10.5,11.3,19.9,13.1,9.8,9.4,13.0,25.2,14.4,10.4,10.7,9.4,12.2,14.5,9.2,11.4,12.4,9.5,12.7,15.9,quantile 2
1094,Nord-Ouest,22,Picardie,Amiens,02,Aisne,Laon,3,Bohain-en-Vermandois,02110,02095,49.983333,3.45,1.79,Bohain-en-Vermandois,22.0,02,230.0,125.0,81.0,12.0,2.0,9.0,0.0,1.0,0.0,0.0,11.3,20.8,13.0,9.4,11.0,10.3,18.9,11.2,9.4,9.7,11.6,22.1,13.9,9.5,11.2,9.3,11.1,12.5,8.6,10.4,11.0,9.6,11.4,12.9,quantile 1
1130,Nord-Ouest,22,Picardie,Amiens,02,Aisne,Laon,3,Fresnoy-le-Grand,02230,02334,49.95,3.416667,1.65,Fresnoy-le-Grand,22.0,02,103.0,63.0,22.0,5.0,3.0,6.0,2.0,1.0,0.0,1.0,12.0,27.2,13.6,9.6,10.8,10.4,21.5,12.2,9.5,9.0,12.7,29.9,14.3,10.0,11.2,9.3,11.5,14.0,8.2,10.3,11.5,9.9,12.1,15.0,quantile 1
1139,Nord-Ouest,22,Picardie,Amiens,02,Aisne,Laon,3,Guise,02120,02361,49.9,3.633333,1.45,Guise,22.0,02,284.0,154.0,82.0,17.0,14.0,11.0,5.0,0.0,1.0,0.0,11.4,21.5,13.4,9.6,10.9,10.5,17.6,12.1,9.5,10.1,11.9,23.6,14.1,9.8,11.0,9.7,11.2,12.4,9.3,10.5,10.9,10.0,11.5,13.1,quantile 1
1145,Nord-Ouest,22,Picardie,Amiens,02,Aisne,Laon,3,Hirson,02500,02381,49.916667,4.083333,2.42,Hirson,22.0,02,394.0,206.0,121.0,28.0,19.0,16.0,2.0,1.0,1.0,0.0,11.1,21.6,13.1,9.6,10.6,10.3,21.3,11.7,9.5,9.8,11.6,21.7,13.9,9.8,10.7,9.0,11.1,12.0,8.8,10.5,10.6,9.1,11.4,12.8,quantile 1
1168,Nord-Ouest,22,Picardie,Amiens,02,Aisne,Laon,3,Le Nouvion-en-Thiérache,02170,02558,50.016667,3.783333,1.93,Le Nouvion-en-Thiérache,22.0,02,123.0,74.0,36.0,6.0,2.0,2.0,1.0,1.0,1.0,0.0,12.6,19.3,16.8,9.8,11.6,11.5,14.6,16.1,9.4,10.8,13.0,21.0,17.2,10.3,11.8,9.5,12.1,15.3,8.9,11.2,13.7,9.6,12.5,15.8,quantile 2
1181,Nord-Ouest,22,Picardie,Amiens,02,Aisne,Laon,3,Marle,02250,02468,49.733333,3.766667,1.04,Marle,22.0,02,119.0,62.0,36.0,7.0,7.0,4.0,1.0,1.0,1.0,0.0,12.4,24.6,15.0,10.4,10.9,11.8,21.5,15.1,9.9,10.4,12.7,25.9,14.9,11.6,11.0,9.4,12.0,14.6,9.1,11.5,13.1,9.4,12.3,15.2,quantile 2
1229,Nord-Ouest,22,Picardie,Amiens,02,Aisne,Laon,3,Saint-Michel,02830,02684,49.916667,4.133333,2.64,Saint-Michel,22.0,02,95.0,60.0,20.0,5.0,3.0,4.0,1.0,1.0,1.0,0.0,10.8,22.5,13.5,8.7,10.6,10.3,19.5,12.3,9.1,10.4,11.0,24.0,14.1,8.0,10.6,8.4,10.6,11.9,8.2,9.9,11.9,8.6,11.0,11.9,quantile 1
1249,Nord-Ouest,22,Picardie,Amiens,02,Aisne,Laon,3,Vervins,02140,02789,49.833333,3.9,1.62,Vervins,22.0,02,166.0,86.0,52.0,6.0,10.0,8.0,2.0,2.0,0.0,0.0,12.2,24.2,13.6,10.1,11.1,11.8,25.8,13.1,10.1,11.4,12.4,23.7,13.8,10.2,11.0,9.6,11.9,14.2,9.1,11.9,12.6,9.9,11.9,15.2,quantile 2
1268,Nord-Ouest,22,Picardie,Amiens,02,Aisne,Laon,4,Beautor,02800,02059,49.65,3.333333,1.41,Beautor,22.0,02,75.0,48.0,16.0,1.0,4.0,4.0,0.0,1.0,1.0,0.0,11.6,21.2,14.0,10.2,10.9,10.3,19.7,11.5,9.8,9.5,12.2,21.5,15.3,10.7,11.1,9.6,11.5,12.7,8.6,10.3,10.9,10.1,12.0,13.4,quantile 1
1269,Nord-Ouest,22,Picardie,Amiens,02,Aisne,Laon,4,Belleu,02200,02064,49.366667,3.333333,0.85,Belleu,22.0,02,89.0,47.0,30.0,7.0,1.0,3.0,1.0,0.0,0.0,0.0,11.9,21.3,13.9,10.1,10.7,10.9,18.2,13.1,9.9,9.3,12.5,22.6,14.5,10.5,11.0,9.3,11.6,13.3,8.9,10.9,11.4,9.5,12.1,14.4,quantile 1
1283,Nord-Ouest,22,Picardie,Amiens,02,Aisne,Laon,4,Chauny,02300,02173,49.616667,3.216667,1.36,Chauny,22.0,02,706.0,392.0,201.0,61.0,30.0,11.0,7.0,2.0,2.0,0.0,12.3,24.2,14.8,9.8,11.0,10.6,18.7,13.2,9.6,9.2,13.3,25.8,15.8,10.4,11.3,9.2,12.3,13.8,8.7,10.7,11.4,9.6,13.2,15.2,quantile 2
1292,Nord-Ouest,22,Picardie,Amiens,02,Aisne,Laon,4,Crouy,02880,02243,49.4,3.366667,0.73,Crouy,22.0,02,143.0,81.0,38.0,8.0,6.0,6.0,3.0,1.0,0.0,0.0,12.0,20.4,13.9,9.8,10.8,10.5,17.6,11.8,9.5,9.6,12.9,21.4,15.4,10.9,11.1,9.1,12.1,13.2,8.6,10.8,10.7,9.5,12.9,14.5,quantile 1
1343,Nord-Ouest,22,Picardie,Amiens,02,Aisne,Laon,4,Sinceny,02300,02719,49.6,3.25,1.21,Sinceny,22.0,02,57.0,40.0,13.0,2.0,2.0,0.0,0.0,0.0,0.0,0.0,13.2,24.2,14.5,10.2,12.1,11.4,19.9,12.7,10.1,8.8,14.0,26.1,15.5,10.4,12.5,9.4,13.3,14.6,8.9,11.6,12.3,9.8,14.0,15.3,quantile 3
1344,Nord-Ouest,22,Picardie,Amiens,02,Aisne,Laon,4,Soissons,02200,02722,49.366667,3.333333,0.85,Soissons,22.0,02,1947.0,1129.0,571.0,123.0,72.0,37.0,12.0,1.0,2.0,0.0,12.3,24.0,14.0,10.0,10.4,11.1,21.0,12.9,9.9,8.7,12.9,25.1,14.7,10.3,10.7,9.3,12.1,14.1,9.1,11.1,12.3,9.5,12.6,15.3,quantile 2
1346,Nord-Ouest,22,Picardie,Amiens,02,Aisne,Laon,4,Tergnier,02700,02738,49.65,3.3,0.99,Tergnier,22.0,02,386.0,235.0,102.0,15.0,23.0,6.0,2.0,0.0,2.0,1.0,12.0,21.2,14.5,10.1,11.4,10.3,16.9,12.7,9.8,9.0,12.8,22.5,15.2,10.6,11.8,9.5,11.8,13.7,8.9,10.1,11.7,9.7,12.6,14.5,quantile 1
1356,Nord-Ouest,22,Picardie,Amiens,02,Aisne,Laon,4,Villeneuve-Saint-Germain,02200,02805,49.383333,3.35,0.78,Villeneuve-Saint-Germain,22.0,02,183.0,80.0,46.0,22.0,10.0,17.0,6.0,1.0,1.0,0.0,11.8,21.6,13.7,10.1,10.8,10.5,16.2,12.5,9.8,9.0,12.6,23.8,14.7,11.0,11.1,9.6,11.6,13.2,8.6,10.6,11.2,10.2,12.3,14.3,quantile 1
1383,Nord-Ouest,22,Picardie,Amiens,02,Aisne,Laon,5,Braine,02220,02110,49.333333,3.533333,0.88,Braine,22.0,02,130.0,78.0,34.0,7.0,7.0,2.0,2.0,0.0,0.0,0.0,12.1,22.3,14.5,10.1,10.9,10.5,18.4,12.0,9.6,9.6,13.0,24.2,15.6,12.4,11.1,9.7,12.3,12.8,9.6,10.6,10.8,9.7,13.1,14.1,quantile 1
1402,Nord-Ouest,22,Picardie,Amiens,02,Aisne,Laon,5,Château-Thierry,02400,02168,49.05,3.4,2.05,Château-Thierry,22.0,02,956.0,521.0,299.0,61.0,41.0,18.0,8.0,5.0,3.0,0.0,12.4,23.8,14.3,10.1,10.8,11.1,20.4,13.0,9.9,9.8,13.2,25.1,15.1,10.5,11.2,9.6,12.3,14.3,9.2,11.2,12.0,9.8,12.9,15.9,quantile 2
1443,Nord-Ouest,22,Picardie,Amiens,02,Aisne,Laon,5,Essômes-sur-Marne,02400,02290,49.033333,3.366667,2.12,Essômes-sur-Marne,22.0,02,89.0,56.0,25.0,4.0,3.0,0.0,0.0,1.0,0.0,0.0,13.7,25.9,14.4,10.9,11.7,11.8,19.0,13.5,10.7,11.1,14.7,27.3,14.9,11.5,11.8,9.4,13.2,16.5,9.0,11.8,13.0,9.6,14.2,18.3,quantile 3
1447,Nord-Ouest,22,Picardie,Amiens,02,Aisne,Laon,5,Fère-en-Tardenois,02130,02305,49.2,3.516667,1.43,Fère-en-Tardenois,22.0,02,188.0,118.0,48.0,10.0,6.0,3.0,1.0,2.0,0.0,0.0,11.9,27.7,14.1,9.8,10.6,10.7,24.9,12.8,9.7,9.5,12.7,28.4,15.0,10.3,10.8,9.1,11.9,13.3,8.8,10.9,10.9,9.3,12.5,14.7,quantile 1
1468,Nord-Ouest,22,Picardie,Amiens,02,Aisne,Laon,5,La Ferté-Milon,02460,02307,49.166667,3.116667,1.8,La Ferté-Milon,22.0,02,106.0,71.0,26.0,2.0,4.0,1.0,2.0,0.0,0.0,0.0,13.0,22.5,15.3,10.9,11.6,11.6,21.1,13.9,10.5,9.8,13.8,23.0,16.1,11.5,12.0,9.7,13.1,14.5,9.1,11.7,12.7,10.0,13.9,15.4,quantile 2
1514,Nord-Ouest,22,Picardie,Amiens,02,Aisne,Laon,5,Neuilly-Saint-Front,02470,02543,49.166667,3.266667,1.57,Neuilly-Saint-Front,22.0,02,97.0,61.0,28.0,3.0,2.0,3.0,0.0,0.0,0.0,0.0,11.8,18.6,13.9,10.9,10.7,10.7,16.1,13.9,10.5,9.2,12.3,19.4,13.9,11.7,11.2,9.2,11.9,12.6,9.0,10.7,11.5,9.2,12.6,13.1,quantile 1
1517,Nord-Ouest,22,Picardie,Amiens,02,Aisne,Laon,5,Nogent-l'Artaud,02310,02555,48.966667,3.316667,2.39,Nogent-l'Artaud,22.0,02,69.0,50.0,13.0,2.0,2.0,1.0,1.0,0.0,0.0,0.0,13.1,23.6,14.7,11.0,11.7,12.2,25.7,13.5,10.9,9.7,13.7,22.8,15.4,11.1,12.0,8.9,12.9,15.1,8.5,12.0,14.5,9.3,13.5,15.5,quantile 2
1569,Nord-Ouest,22,Picardie,Amiens,02,Aisne,Laon,5,Vailly-sur-Aisne,02370,02758,49.416667,3.516667,0.54,Vailly-sur-Aisne,22.0,02,102.0,59.0,32.0,4.0,4.0,2.0,0.0,1.0,0.0,0.0,12.4,27.5,14.7,10.1,10.5,11.1,19.1,14.0,9.9,9.1,13.1,30.3,15.3,10.7,10.7,9.3,12.3,13.9,9.0,11.1,11.9,9.4,13.0,15.0,quantile 2
1586,Nord-Ouest,22,Picardie,Amiens,02,Aisne,Laon,5,Villers-Cotterêts,02600,02810,49.25,3.083333,1.94,Villers-Cotterêts,22.0,02,491.0,274.0,139.0,25.0,23.0,20.0,6.0,2.0,1.0,1.0,12.9,23.5,14.9,10.3,11.4,11.4,19.2,13.7,10.1,9.8,13.7,25.2,15.7,10.6,11.8,9.2,12.8,14.8,8.8,11.7,11.9,9.4,13.5,16.3,quantile 2
1597,Centre,83,Auvergne,Clermont-Ferrand,03,Allier,Moulins,1,Avermes,03000,03013,46.583333,3.3,1.57,Avermes,83.0,03,208.0,106.0,54.0,16.0,13.0,10.0,3.0,2.0,4.0,0.0,12.1,24.9,13.0,10.0,10.3,11.3,22.3,12.0,9.9,8.8,12.7,26.2,13.9,10.1,10.5,8.8,12.0,13.6,8.7,11.1,12.6,8.9,12.6,14.3,quantile 1
1614,Centre,83,Auvergne,Clermont-Ferrand,03,Allier,Moulins,1,Dompierre-sur-Besbre,03290,03102,46.516667,3.683333,1.55,Dompierre-sur-Besbre,83.0,03,207.0,117.0,63.0,12.0,8.0,4.0,2.0,0.0,0.0,1.0,11.8,23.5,13.9,9.9,11.0,10.5,17.6,12.3,9.9,9.2,12.6,25.2,15.0,9.8,11.2,9.3,11.3,13.8,9.0,9.9,12.0,9.5,12.0,14.9,quantile 1
1637,Centre,83,Auvergne,Clermont-Ferrand,03,Allier,Moulins,1,Moulins,03000,03190,46.566667,3.333333,1.45,Moulins,83.0,03,1543.0,894.0,467.0,75.0,56.0,31.0,14.0,4.0,2.0,0.0,11.6,21.9,13.4,9.9,10.0,10.9,18.4,12.9,9.8,8.6,12.1,24.0,13.9,10.1,10.2,9.2,11.4,13.7,9.0,10.7,12.4,9.3,11.9,15.0,quantile 1
1662,Centre,83,Auvergne,Clermont-Ferrand,03,Allier,Moulins,1,Yzeure,03400,03321,46.566667,3.35,1.45,Yzeure,83.0,03,580.0,321.0,139.0,50.0,34.0,17.0,14.0,4.0,1.0,0.0,12.5,22.0,13.9,10.4,10.6,11.5,18.9,13.4,10.1,9.3,13.2,23.7,14.2,11.0,10.8,9.2,12.0,14.5,8.8,11.2,13.2,9.6,12.6,15.6,quantile 2
1669,Centre,83,Auvergne,Clermont-Ferrand,03,Allier,Moulins,2,Commentry,03600,03082,46.283333,2.75,1.47,Commentry,83.0,03,309.0,195.0,75.0,15.0,12.0,7.0,3.0,0.0,2.0,0.0,12.0,21.0,14.4,10.1,11.3,10.5,19.3,12.1,9.7,9.5,12.7,22.0,15.5,11.1,11.6,9.4,11.6,13.5,9.0,10.2,11.7,9.6,12.4,14.5,quantile 1
1672,Centre,83,Auvergne,Clermont-Ferrand,03,Allier,Moulins,2,Désertines,03630,03098,46.35,2.616667,1.7,Désertines,83.0,03,198.0,134.0,40.0,5.0,9.0,8.0,1.0,0.0,1.0,0.0,12.3,21.8,14.6,9.9,11.1,11.0,18.5,13.2,9.6,9.8,13.2,23.5,15.5,10.6,11.3,9.4,12.0,13.7,9.1,10.7,12.1,9.7,12.9,15.1,quantile 2
1673,Centre,83,Auvergne,Clermont-Ferrand,03,Allier,Moulins,2,Domérat,03410,03101,46.35,2.533333,1.95,Domérat,83.0,03,381.0,227.0,97.0,22.0,16.0,11.0,5.0,0.0,2.0,1.0,12.4,21.1,13.9,10.2,11.1,11.0,18.5,12.9,9.9,9.9,13.4,22.1,14.4,11.1,11.4,9.2,12.0,14.1,8.8,10.9,12.0,9.5,12.9,15.5,quantile 2
1675,Centre,83,Auvergne,Clermont-Ferrand,03,Allier,Moulins,2,Huriel,03380,03128,46.366667,2.483333,2.11,Huriel,83.0,03,88.0,60.0,24.0,2.0,2.0,0.0,0.0,0.0,0.0,0.0,11.9,21.1,13.8,9.7,11.1,10.2,17.9,11.8,9.4,9.4,13.0,22.3,14.8,10.5,11.4,9.7,11.6,13.2,8.7,10.0,11.5,10.4,12.8,14.2,quantile 1
1687,Centre,83,Auvergne,Clermont-Ferrand,03,Allier,Moulins,2,Montluçon,03100,03185,46.333333,2.6,1.75,Montluçon,83.0,03,2344.0,1351.0,686.0,132.0,97.0,53.0,15.0,8.0,0.0,2.0,11.7,21.4,13.3,9.6,10.7,10.5,18.3,12.3,9.4,9.3,12.5,22.7,14.1,9.9,10.9,9.4,11.6,13.4,8.9,10.4,11.7,9.8,12.4,14.6,quantile 1
1688,Centre,83,Auvergne,Clermont-Ferrand,03,Allier,Moulins,2,Néris-les-Bains,03310,03195,46.283333,2.666667,1.55,Néris-les-Bains,83.0,03,173.0,130.0,33.0,6.0,2.0,2.0,0.0,0.0,0.0,0.0,13.9,25.0,14.3,10.0,12.1,11.7,18.4,13.9,9.6,11.4,15.2,27.5,14.6,11.2,12.1,9.4,13.3,16.5,9.6,11.6,12.6,9.3,14.4,19.2,quantile 3
1689,Centre,83,Auvergne,Clermont-Ferrand,03,Allier,Moulins,2,Prémilhat,03410,03211,46.316667,2.533333,1.95,Prémilhat,83.0,03,117.0,65.0,22.0,7.0,10.0,8.0,4.0,1.0,0.0,0.0,13.2,23.2,13.9,10.5,11.7,11.3,19.1,12.9,9.9,10.3,14.4,24.4,14.6,12.1,11.9,9.0,12.8,14.8,8.7,11.7,11.0,9.2,13.5,17.2,quantile 3
1726,Centre,83,Auvergne,Clermont-Ferrand,03,Allier,Moulins,3,Bourbon-l'Archambault,03160,03036,46.583333,3.05,1.57,Bourbon-l'Archambault,83.0,03,200.0,131.0,51.0,9.0,3.0,4.0,2.0,0.0,0.0,0.0,11.9,21.4,13.0,10.1,10.9,11.3,20.0,12.5,10.0,9.3,12.3,22.0,13.5,10.6,11.0,9.2,11.8,13.2,8.9,11.0,12.6,9.3,12.3,13.6,quantile 1
1747,Centre,83,Auvergne,Clermont-Ferrand,03,Allier,Moulins,3,Cosne-d'Allier,03430,03084,46.466667,2.833333,1.04,Cosne-d'Allier,83.0,03,119.0,71.0,37.0,4.0,5.0,2.0,0.0,0.0,0.0,0.0,11.7,21.6,13.6,10.1,10.8,10.8,20.4,12.5,10.0,9.3,12.3,22.0,14.3,10.4,11.0,9.3,11.4,13.0,8.3,10.5,11.9,10.0,11.9,13.6,quantile 1
1763,Centre,83,Auvergne,Clermont-Ferrand,03,Allier,Moulins,3,Gannat,03800,03118,46.1,3.2,1.76,Gannat,83.0,03,407.0,237.0,116.0,23.0,15.0,12.0,3.0,1.0,0.0,0.0,11.8,22.3,13.8,9.8,10.4,10.7,19.8,12.9,9.6,9.2,12.5,23.1,14.4,10.4,10.7,9.1,11.6,13.7,8.9,10.7,11.6,9.3,12.2,15.1,quantile 1
1786,Centre,83,Auvergne,Clermont-Ferrand,03,Allier,Moulins,3,Lurcy-Lévis,03320,03155,46.716667,2.933333,2.49,Lurcy-Lévis,83.0,03,122.0,79.0,27.0,7.0,7.0,1.0,0.0,1.0,0.0,0.0,10.6,19.4,13.2,9.4,9.7,9.9,19.8,12.5,9.2,9.1,11.1,19.2,13.6,9.8,9.8,8.8,10.6,11.4,8.2,10.3,10.1,9.4,10.8,12.3,quantile 1
1823,Centre,83,Auvergne,Clermont-Ferrand,03,Allier,Moulins,3,Saint-Germain-des-Fossés,03260,03236,46.2,3.433333,1.34,Saint-Germain-des-Fossés,83.0,03,174.0,120.0,38.0,5.0,3.0,5.0,2.0,0.0,1.0,0.0,11.6,22.8,13.6,9.8,10.5,10.7,20.2,12.6,9.5,9.8,12.2,24.3,14.2,10.7,10.6,9.0,11.2,13.6,8.6,10.3,12.5,9.3,11.8,14.5,quantile 1
1830,Centre,83,Auvergne,Clermont-Ferrand,03,Allier,Moulins,3,Saint-Pourçain-sur-Sioule,03500,03254,46.3,3.283333,0.71,Saint-Pourçain-sur-Sioule,83.0,03,435.0,242.0,126.0,21.0,25.0,12.0,7.0,1.0,0.0,1.0,11.8,20.9,13.9,10.3,10.6,11.1,17.8,13.9,10.0,10.4,12.3,22.1,14.0,11.1,10.6,9.0,11.9,12.6,8.5,11.3,11.5,9.4,12.3,13.4,quantile 1
1853,Centre,83,Auvergne,Clermont-Ferrand,03,Allier,Moulins,3,Varennes-sur-Allier,03150,03298,46.316667,3.4,1.24,Varennes-sur-Allier,83.0,03,260.0,134.0,94.0,13.0,12.0,5.0,1.0,0.0,1.0,0.0,11.3,22.9,13.4,9.7,10.4,10.6,20.5,12.7,9.6,9.7,11.8,24.3,14.0,10.1,10.6,9.3,11.0,12.8,9.0,10.7,11.0,9.5,11.2,13.9,quantile 1
1864,Centre,83,Auvergne,Clermont-Ferrand,03,Allier,Moulins,4,Abrest,03200,03001,46.1,3.433333,1.76,Abrest,83.0,03,171.0,119.0,37.0,4.0,3.0,4.0,2.0,2.0,0.0,0.0,12.7,22.9,14.4,10.1,10.9,10.9,18.4,12.8,9.7,9.2,13.9,24.4,15.5,11.0,11.3,9.5,12.4,14.6,9.3,10.8,11.7,9.5,13.4,16.3,quantile 2
1869,Centre,83,Auvergne,Clermont-Ferrand,03,Allier,Moulins,4,Bellerive-sur-Allier,03700,03023,46.116667,3.4,1.65,Bellerive-sur-Allier,83.0,03,500.0,346.0,94.0,22.0,20.0,14.0,3.0,0.0,1.0,0.0,13.5,25.2,14.2,10.0,10.8,11.5,19.6,13.8,9.7,9.3,15.0,27.7,14.5,10.6,11.3,9.2,13.1,15.6,9.0,11.2,12.6,9.4,14.5,17.9,quantile 3
1880,Centre,83,Auvergne,Clermont-Ferrand,03,Allier,Moulins,4,Creuzier-le-Vieux,03300,03094,46.166667,3.433333,1.3,Creuzier-le-Vieux,83.0,03,190.0,120.0,34.0,14.0,12.0,5.0,2.0,2.0,1.0,0.0,13.5,23.7,14.9,10.1,11.2,11.4,17.9,13.5,9.9,10.7,15.0,25.7,15.9,10.7,11.3,9.0,13.3,15.1,8.9,11.4,12.4,9.1,14.7,17.1,quantile 3
1881,Centre,83,Auvergne,Clermont-Ferrand,03,Allier,Moulins,4,Cusset,03300,03095,46.133333,3.466667,1.53,Cusset,83.0,03,777.0,460.0,195.0,49.0,37.0,26.0,7.0,2.0,1.0,0.0,12.2,24.7,13.8,10.0,10.4,10.9,19.8,12.9,9.9,9.4,13.2,26.7,14.5,10.2,10.7,9.1,11.7,14.4,8.7,10.6,12.3,9.3,12.5,16.2,quantile 2
1891,Centre,83,Auvergne,Clermont-Ferrand,03,Allier,Moulins,4,Lapalisse,03120,03138,46.25,3.633333,1.4,Lapalisse,83.0,03,247.0,139.0,81.0,10.0,9.0,5.0,1.0,1.0,1.0,0.0,10.9,19.7,12.8,9.8,10.0,10.4,19.8,12.4,9.7,9.5,11.3,19.7,13.0,10.4,10.1,8.8,11.0,12.0,8.1,10.4,11.1,9.2,11.3,12.6,quantile 1
1910,Centre,83,Auvergne,Clermont-Ferrand,03,Allier,Moulins,4,Saint-Yorre,03270,03264,46.066667,3.466667,1.99,Saint-Yorre,83.0,03,165.0,103.0,34.0,12.0,8.0,2.0,5.0,1.0,0.0,0.0,12.5,26.8,14.0,10.2,10.8,10.9,18.0,12.4,10.2,9.5,13.7,30.7,14.9,10.3,11.2,8.9,11.9,14.8,8.6,10.8,11.6,9.2,12.6,17.3,quantile 2
1913,Centre,83,Auvergne,Clermont-Ferrand,03,Allier,Moulins,4,Vendat,03110,03304,46.15,3.35,1.42,Vendat,83.0,03,86.0,65.0,15.0,4.0,1.0,1.0,0.0,0.0,0.0,0.0,13.9,24.4,15.5,10.4,11.2,11.5,18.8,13.6,10.3,9.8,15.7,26.1,16.5,10.7,11.6,9.6,13.3,16.4,8.8,11.3,12.7,10.2,14.7,18.8,quantile 3
1914,Centre,83,Auvergne,Clermont-Ferrand,03,Allier,Moulins,4,Vichy,03200,03310,46.116667,3.416667,1.65,Vichy,83.0,03,2413.0,1524.0,679.0,104.0,62.0,28.0,11.0,3.0,2.0,0.0,12.4,24.4,13.7,9.9,10.1,11.3,20.1,13.7,9.7,9.1,13.3,26.7,13.8,10.2,10.3,9.2,12.2,15.1,9.0,11.4,12.6,9.4,12.8,17.7,quantile 2
1950,Sud-Est,93,Provence-Alpes-Côte d'Azur,Marseille,04,Alpes-de-Haute-Provence,Digne-les-Bains,1,Gréoux-les-Bains,04800,04094,43.75,5.883333,2.01,Gréoux-les-Bains,93.0,04,401.0,309.0,73.0,8.0,6.0,3.0,1.0,1.0,0.0,0.0,12.8,23.8,13.3,9.8,10.8,11.8,22.9,12.1,9.8,9.1,13.4,24.2,14.2,9.9,11.1,9.4,12.7,14.7,9.5,11.9,13.0,9.3,13.3,15.6,quantile 2
1966,Sud-Est,93,Provence-Alpes-Côte d'Azur,Marseille,04,Alpes-de-Haute-Provence,Digne-les-Bains,1,Les Mées,04190,04116,44.033333,5.983333,0.59,Les Mées,93.0,04,268.0,206.0,42.0,8.0,7.0,4.0,1.0,0.0,0.0,0.0,11.9,22.5,13.5,10.0,10.5,10.6,19.0,11.5,9.7,9.0,12.7,24.0,14.9,10.7,10.7,9.4,11.6,14.1,9.0,10.4,11.7,9.7,12.2,15.7,quantile 1
1979,Sud-Est,93,Provence-Alpes-Côte d'Azur,Marseille,04,Alpes-de-Haute-Provence,Digne-les-Bains,1,Oraison,04700,04143,43.916667,5.916667,0.99,Oraison,93.0,04,398.0,271.0,92.0,14.0,12.0,6.0,3.0,0.0,0.0,0.0,13.1,21.9,14.4,10.5,10.9,11.7,19.4,12.9,10.2,9.6,14.0,23.2,15.2,11.2,11.1,9.4,13.0,15.3,9.0,11.6,13.2,9.6,14.0,16.8,quantile 2
1982,Sud-Est,93,Provence-Alpes-Côte d'Azur,Marseille,04,Alpes-de-Haute-Provence,Digne-les-Bains,1,Peyruis,04310,04149,44.033333,5.933333,0.96,Peyruis,93.0,04,186.0,115.0,45.0,6.0,12.0,8.0,0.0,0.0,0.0,0.0,12.5,21.9,14.1,10.0,11.1,11.0,20.1,12.4,9.6,9.2,13.5,22.7,15.4,11.2,11.5,9.5,12.4,14.4,9.2,10.7,12.5,9.6,13.5,16.1,quantile 2
2013,Sud-Est,93,Provence-Alpes-Côte d'Azur,Marseille,04,Alpes-de-Haute-Provence,Digne-les-Bains,1,Valensole,04210,04230,43.833333,5.983333,1.5,Valensole,93.0,04,271.0,212.0,44.0,9.0,4.0,2.0,0.0,0.0,0.0,0.0,12.4,22.6,14.2,10.2,10.5,11.2,19.7,13.2,10.0,8.9,13.4,24.0,15.0,10.7,10.9,9.3,12.2,14.1,8.8,11.3,12.0,9.7,13.0,16.0,quantile 2
2021,Sud-Est,93,Provence-Alpes-Côte d'Azur,Marseille,04,Alpes-de-Haute-Provence,Digne-les-Bains,2,Barcelonnette,04400,04019,44.383333,6.65,1.94,Barcelonnette,93.0,04,490.0,348.0,117.0,16.0,6.0,3.0,0.0,0.0,0.0,0.0,11.0,18.8,13.0,9.6,10.3,10.3,15.7,11.7,9.7,9.0,11.7,20.6,14.1,9.5,10.5,9.1,11.1,11.9,9.0,10.3,10.9,9.2,11.8,12.7,quantile 1
2041,Sud-Est,93,Provence-Alpes-Côte d'Azur,Marseille,04,Alpes-de-Haute-Provence,Digne-les-Bains,2,Forcalquier,04300,04088,43.966667,5.783333,1.35,Forcalquier,93.0,04,543.0,409.0,99.0,21.0,5.0,7.0,2.0,0.0,0.0,0.0,11.7,22.6,13.3,9.8,10.1,10.6,18.3,11.9,9.5,9.1,12.5,25.3,14.3,10.3,10.3,8.9,11.3,13.9,8.9,10.6,11.5,8.9,11.9,15.8,quantile 1
2059,Sud-Est,93,Provence-Alpes-Côte d'Azur,Marseille,04,Alpes-de-Haute-Provence,Digne-les-Bains,2,Manosque,04100,04112,43.833333,5.783333,1.5,Manosque,93.0,04,2419.0,1563.0,609.0,110.0,64.0,50.0,16.0,2.0,4.0,1.0,13.4,25.3,14.2,10.1,10.5,11.9,21.4,13.1,10.0,9.1,14.5,27.1,14.9,10.3,10.8,9.6,13.2,16.0,9.4,11.9,13.4,9.8,14.1,18.1,quantile 3
2076,Sud-Est,93,Provence-Alpes-Côte d'Azur,Marseille,04,Alpes-de-Haute-Provence,Digne-les-Bains,2,Pierrevert,04860,04152,43.816667,5.75,1.6,Pierrevert,93.0,04,223.0,178.0,39.0,5.0,1.0,0.0,0.0,0.0,0.0,0.0,16.9,27.6,15.3,10.8,12.5,13.7,24.1,13.2,10.5,10.0,19.3,29.0,17.0,11.8,13.0,10.0,15.8,21.3,9.5,13.4,15.6,10.3,17.7,25.4,quantile 4
2085,Sud-Est,93,Provence-Alpes-Côte d'Azur,Marseille,04,Alpes-de-Haute-Provence,Digne-les-Bains,2,Sainte-Tulle,04220,04197,43.783333,5.766667,1.81,Sainte-Tulle,93.0,04,233.0,160.0,50.0,13.0,5.0,4.0,1.0,0.0,0.0,0.0,13.5,24.5,15.2,10.3,11.3,11.5,22.0,13.0,10.1,10.3,14.8,25.3,16.3,10.9,11.4,9.6,13.1,16.0,9.3,11.2,12.9,9.7,14.3,18.0,quantile 3
2101,Sud-Est,93,Provence-Alpes-Côte d'Azur,Marseille,04,Alpes-de-Haute-Provence,Digne-les-Bains,2,Sisteron,04200,04209,44.2,5.933333,0.78,Sisteron,93.0,04,718.0,424.0,201.0,46.0,29.0,12.0,4.0,1.0,0.0,1.0,12.9,23.3,15.0,9.9,11.1,11.1,20.5,12.9,9.5,8.9,14.0,24.6,16.4,10.9,11.4,9.4,12.7,14.8,9.2,11.3,11.7,9.6,13.6,16.6,quantile 2
2113,Sud-Est,93,Provence-Alpes-Côte d'Azur,Marseille,04,Alpes-de-Haute-Provence,Digne-les-Bains,2,Villeneuve,04180,04242,43.9,5.866667,1.09,Villeneuve,93.0,04,232.0,178.0,46.0,4.0,1.0,3.0,0.0,0.0,0.0,0.0,13.7,24.7,14.5,10.6,11.4,11.6,22.0,13.0,10.1,10.0,15.0,25.5,15.1,11.7,11.7,9.3,13.3,16.4,8.8,11.6,12.8,9.7,14.5,18.4,quantile 3
2114,Sud-Est,93,Provence-Alpes-Côte d'Azur,Marseille,04,Alpes-de-Haute-Provence,Digne-les-Bains,2,Volx,04130,04245,43.883333,5.85,1.19,Volx,93.0,04,194.0,135.0,44.0,8.0,5.0,2.0,0.0,0.0,0.0,0.0,13.2,23.2,14.7,10.6,11.2,11.7,20.7,12.1,10.3,10.1,14.2,24.6,16.0,11.5,11.4,9.4,13.1,15.3,8.7,11.8,12.6,9.7,13.9,17.5,quantile 3
2129,Sud-Est,93,Provence-Alpes-Côte d'Azur,Marseille,05,Hautes-Alpes,Gap,1,Chorges,05230,05040,44.55,6.283333,0.73,Chorges,93.0,05,304.0,232.0,50.0,7.0,6.0,9.0,0.0,0.0,0.0,0.0,12.2,20.0,13.8,10.1,11.3,10.9,16.2,13.0,9.8,9.5,13.2,21.4,14.5,11.0,11.4,9.4,12.0,13.8,8.9,11.0,11.5,9.8,12.8,15.6,quantile 2
2137,Sud-Est,93,Provence-Alpes-Côte d'Azur,Marseille,05,Hautes-Alpes,Gap,1,Gap,05000,05061,44.566667,6.083333,0.28,Gap,93.0,05,3484.0,2196.0,908.0,158.0,136.0,62.0,11.0,12.0,1.0,0.0,12.2,21.7,13.7,10.0,10.4,11.1,18.7,12.7,9.9,8.1,13.0,23.2,14.5,10.3,10.7,9.2,11.8,14.7,8.9,10.8,12.8,9.4,12.5,16.4,quantile 2
2140,Sud-Est,93,Provence-Alpes-Côte d'Azur,Marseille,05,Hautes-Alpes,Gap,1,La Bâtie-Neuve,05230,05017,44.566667,6.2,0.98,La Bâtie-Neuve,93.0,05,153.0,119.0,21.0,6.0,4.0,2.0,1.0,0.0,0.0,0.0,12.5,24.7,13.7,9.9,11.0,11.2,22.2,12.4,9.7,8.8,13.5,25.7,14.8,10.7,11.1,9.4,12.0,15.4,9.3,10.9,12.8,9.5,12.7,17.4,quantile 2
2203,Sud-Est,93,Provence-Alpes-Côte d'Azur,Marseille,05,Hautes-Alpes,Gap,1,Tallard,05130,05170,44.466667,6.05,0.76,Tallard,93.0,05,218.0,148.0,52.0,7.0,6.0,3.0,0.0,2.0,0.0,0.0,11.4,22.7,13.4,9.7,9.6,10.4,21.9,12.5,9.6,6.4,12.2,23.1,14.2,9.9,10.3,8.9,11.5,12.6,8.1,10.3,11.9,9.3,12.4,13.1,quantile 1
2209,Sud-Est,93,Provence-Alpes-Côte d'Azur,Marseille,05,Hautes-Alpes,Gap,1,Veynes,05400,05179,44.533333,5.816667,0.99,Veynes,93.0,05,252.0,166.0,65.0,10.0,6.0,3.0,1.0,1.0,0.0,0.0,12.1,20.5,14.6,9.9,11.4,10.8,18.1,13.6,9.6,9.4,12.9,22.1,15.1,10.8,11.7,9.5,11.6,14.1,9.0,10.4,12.0,9.7,12.4,15.7,quantile 1
2218,Sud-Est,93,Provence-Alpes-Côte d'Azur,Marseille,05,Hautes-Alpes,Gap,2,Briançon,05100,05023,44.9,6.65,2.24,Briançon,93.0,05,1390.0,1005.0,261.0,58.0,39.0,19.0,6.0,1.0,1.0,0.0,12.0,23.5,13.5,10.0,10.6,11.4,21.1,13.2,9.9,9.0,12.5,25.1,13.9,10.4,10.8,9.3,11.7,14.4,9.2,11.2,12.8,9.5,12.1,15.9,quantile 1
2230,Sud-Est,93,Provence-Alpes-Côte d'Azur,Marseille,05,Hautes-Alpes,Gap,2,Embrun,05200,05046,44.566667,6.5,1.26,Embrun,93.0,05,676.0,477.0,153.0,27.0,14.0,3.0,2.0,0.0,0.0,0.0,11.7,20.6,13.3,9.7,10.9,10.7,16.9,12.7,9.6,9.5,12.4,22.6,13.7,9.9,11.1,9.0,11.4,14.0,8.7,10.7,12.0,9.2,12.0,15.3,quantile 1
2234,Sud-Est,93,Provence-Alpes-Côte d'Azur,Marseille,05,Hautes-Alpes,Gap,2,Guillestre,05600,05065,44.666667,6.65,1.76,Guillestre,93.0,05,299.0,207.0,73.0,9.0,4.0,5.0,1.0,0.0,0.0,0.0,11.7,18.6,14.3,9.7,11.3,10.5,13.9,12.8,9.8,9.5,12.6,20.1,15.7,9.5,11.4,9.3,11.9,12.8,9.0,10.8,10.6,9.4,12.6,14.4,quantile 1
2239,Sud-Est,93,Provence-Alpes-Côte d'Azur,Marseille,05,Hautes-Alpes,Gap,2,L'Argentière-la-Bessée,05120,05006,44.783333,6.55,1.43,L'Argentière-la-Bessée,93.0,05,242.0,175.0,42.0,12.0,9.0,3.0,0.0,1.0,0.0,0.0,12.2,19.0,14.6,10.3,11.0,10.9,15.7,14.1,9.9,8.5,12.8,19.8,14.9,11.2,11.2,9.7,12.0,13.8,10.0,10.6,12.2,9.4,12.7,14.6,quantile 2
2292,Sud-Est,93,Provence-Alpes-Côte d'Azur,Marseille,06,Alpes-Maritimes,Nice,1,Nice,06000,06088,43.7,7.25,1.08,Nice,93.0,06,39314.0,28345.0,8148.0,1298.0,911.0,414.0,104.0,62.0,23.0,9.0,13.2,23.5,14.5,10.5,11.0,12.1,20.9,13.7,10.4,9.2,14.1,25.1,15.2,10.8,11.4,9.7,13.1,15.4,9.3,12.1,13.6,9.9,13.8,17.0,quantile 3
2293,Sud-Est,93,Provence-Alpes-Côte d'Azur,Marseille,06,Alpes-Maritimes,Nice,2,Nice,06000,06088,43.7,7.25,1.08,Nice,93.0,06,39314.0,28345.0,8148.0,1298.0,911.0,414.0,104.0,62.0,23.0,9.0,13.2,23.5,14.5,10.5,11.0,12.1,20.9,13.7,10.4,9.2,14.1,25.1,15.2,10.8,11.4,9.7,13.1,15.4,9.3,12.1,13.6,9.9,13.8,17.0,quantile 3
2295,Sud-Est,93,Provence-Alpes-Côte d'Azur,Marseille,06,Alpes-Maritimes,Nice,3,La Trinité,06340,06149,43.75,7.316667,1.2,La Trinité,93.0,06,711.0,453.0,168.0,45.0,27.0,14.0,2.0,1.0,0.0,1.0,12.4,20.3,14.6,10.6,11.4,11.5,19.1,13.2,10.4,9.2,13.1,21.0,15.7,11.1,11.7,9.6,12.4,13.9,9.1,11.4,12.8,9.9,13.1,14.9,quantile 2
2296,Sud-Est,93,Provence-Alpes-Côte d'Azur,Marseille,06,Alpes-Maritimes,Nice,3,Nice,06000,06088,43.7,7.25,1.08,Nice,93.0,06,39314.0,28345.0,8148.0,1298.0,911.0,414.0,104.0,62.0,23.0,9.0,13.2,23.5,14.5,10.5,11.0,12.1,20.9,13.7,10.4,9.2,14.1,25.1,15.2,10.8,11.4,9.7,13.1,15.4,9.3,12.1,13.6,9.9,13.8,17.0,quantile 3
2297,Sud-Est,93,Provence-Alpes-Côte d'Azur,Marseille,06,Alpes-Maritimes,Nice,3,Saint-André de la Roche,06730,06114,43.733333,7.283333,1.01,Saint-André-de-la-Roche,93.0,06,362.0,230.0,81.0,22.0,15.0,10.0,4.0,0.0,0.0,0.0,12.7,22.4,14.6,10.3,11.5,11.8,21.7,13.7,10.2,10.0,13.4,22.8,15.5,10.4,11.7,9.7,12.4,15.2,9.3,11.5,14.0,10.0,13.0,16.1,quantile 2
2298,Sud-Est,93,Provence-Alpes-Côte d'Azur,Marseille,06,Alpes-Maritimes,Nice,4,Beaulieu-sur-Mer,06310,06011,43.7,7.333333,1.29,Beaulieu-sur-Mer,93.0,06,636.0,410.0,182.0,28.0,9.0,6.0,1.0,0.0,0.0,0.0,13.3,24.4,14.4,10.8,11.7,11.9,20.3,14.3,10.6,8.8,14.4,26.0,14.6,11.1,12.2,9.0,13.5,14.4,8.6,12.0,12.6,9.2,14.6,16.1,quantile 3
2299,Sud-Est,93,Provence-Alpes-Côte d'Azur,Marseille,06,Alpes-Maritimes,Nice,4,Beausoleil,06240,06012,43.75,7.433333,1.86,Beausoleil,93.0,06,1131.0,883.0,199.0,26.0,20.0,2.0,1.0,0.0,0.0,0.0,11.8,20.7,13.9,9.8,10.5,11.1,19.8,13.2,9.6,8.9,12.3,21.3,14.4,10.2,10.9,9.2,11.9,13.1,9.1,11.1,12.4,9.4,12.4,13.6,quantile 1
2301,Sud-Est,93,Provence-Alpes-Côte d'Azur,Marseille,06,Alpes-Maritimes,Nice,4,Breil-sur-Roya,06540,06023,43.933333,7.5,2.24,Breil-sur-Roya,93.0,06,165.0,132.0,28.0,3.0,2.0,0.0,0.0,0.0,0.0,0.0,11.8,17.4,14.1,10.2,11.2,10.7,16.7,11.0,10.1,9.1,12.7,18.3,18.1,10.4,11.5,8.9,11.9,12.5,8.2,10.9,11.1,9.3,13.0,14.0,quantile 1
2302,Sud-Est,93,Provence-Alpes-Côte d'Azur,Marseille,06,Alpes-Maritimes,Nice,4,Cap-d'Ail,06320,06032,43.716667,7.4,1.67,Cap-d'Ail,93.0,06,400.0,300.0,80.0,14.0,4.0,1.0,1.0,0.0,0.0,0.0,17.2,21.1,44.2,10.7,11.2,12.5,16.1,15.2,11.0,10.4,20.1,24.0,73.8,10.4,11.3,9.6,20.0,14.4,8.8,12.2,14.3,10.0,24.8,14.5,quantile 4
2305,Sud-Est,93,Provence-Alpes-Côte d'Azur,Marseille,06,Alpes-Maritimes,Nice,4,Eze,06360,06059,43.716667,7.366667,1.48,Èze,93.0,06,331.0,247.0,70.0,6.0,2.0,5.0,1.0,0.0,0.0,0.0,14.3,23.3,15.1,11.0,12.1,12.9,22.3,14.2,10.7,9.5,15.3,23.7,16.1,11.5,12.5,9.8,13.8,17.1,10.1,12.8,14.3,9.6,14.5,19.0,quantile 3
2309,Sud-Est,93,Provence-Alpes-Côte d'Azur,Marseille,06,Alpes-Maritimes,Nice,4,La Turbie,06320,06150,43.75,7.4,1.67,La Turbie,93.0,06,255.0,190.0,42.0,12.0,7.0,3.0,0.0,1.0,0.0,0.0,18.6,26.7,37.4,11.0,11.6,12.7,20.6,14.5,10.2,9.7,22.6,30.1,52.9,12.2,11.9,13.4,17.0,25.8,8.9,12.4,15.0,15.6,20.1,34.2,quantile 4
2310,Sud-Est,93,Provence-Alpes-Côte d'Azur,Marseille,06,Alpes-Maritimes,Nice,4,L'Escarène,06440,06057,43.833333,7.35,1.39,L'Escarène,93.0,06,192.0,157.0,30.0,1.0,1.0,3.0,0.0,0.0,0.0,0.0,12.6,21.0,14.9,10.6,11.6,11.3,19.9,13.1,10.4,8.9,13.4,21.5,16.2,11.2,11.9,9.2,12.3,14.6,8.9,11.1,12.8,9.4,13.1,15.9,quantile 2
2312,Sud-Est,93,Provence-Alpes-Côte d'Azur,Marseille,06,Alpes-Maritimes,Nice,4,Menton,06500,06083,43.783333,7.5,2.24,Menton,93.0,06,3271.0,2324.0,740.0,100.0,74.0,24.0,6.0,3.0,0.0,0.0,11.7,21.3,13.8,10.0,10.4,10.8,18.8,13.1,9.9,8.5,12.5,22.6,14.6,10.1,10.7,9.0,11.6,13.2,8.9,10.7,12.1,9.2,12.4,14.2,quantile 1
2314,Sud-Est,93,Provence-Alpes-Côte d'Azur,Marseille,06,Alpes-Maritimes,Nice,4,Peille,06440,06091,43.8,7.4,1.67,Peille,93.0,06,138.0,127.0,11.0,0.0,0.0,0.0,0.0,0.0,0.0,0.0,13.3,25.0,15.0,11.2,11.4,11.3,17.9,13.4,10.3,9.7,14.6,27.2,16.0,13.2,11.6,9.3,13.3,15.6,8.6,11.7,11.4,9.7,14.3,18.3,quantile 3
2316,Sud-Est,93,Provence-Alpes-Côte d'Azur,Marseille,06,Alpes-Maritimes,Nice,4,Roquebrune-Cap-Martin,06190,06104,43.766667,7.466667,2.05,Roquebrune-Cap-Martin,93.0,06,1075.0,834.0,198.0,21.0,16.0,4.0,2.0,0.0,0.0,0.0,12.9,23.1,15.0,10.3,10.9,11.8,20.1,14.0,10.1,8.5,13.8,25.1,16.4,10.7,11.3,9.2,12.7,14.9,9.1,11.9,13.1,9.3,13.3,16.2,quantile 2
2320,Sud-Est,93,Provence-Alpes-Côte d'Azur,Marseille,06,Alpes-Maritimes,Nice,4,Sospel,06380,06136,43.883333,7.45,1.96,Sospel,93.0,06,292.0,241.0,44.0,4.0,3.0,0.0,0.0,0.0,0.0,0.0,12.1,21.1,14.2,10.4,11.0,11.0,18.9,13.0,10.2,8.4,13.1,22.2,15.3,11.1,11.5,8.8,12.3,13.6,8.7,10.9,12.2,8.9,13.5,14.7,quantile 1
2321,Sud-Est,93,Provence-Alpes-Côte d'Azur,Marseille,06,Alpes-Maritimes,Nice,4,Tende,06430,06163,44.083333,7.6,2.81,Tende,93.0,06,188.0,148.0,36.0,2.0,2.0,0.0,0.0,0.0,0.0,0.0,11.6,18.0,15.1,9.5,10.0,10.6,16.0,12.9,9.6,7.4,12.2,19.4,16.1,9.4,10.4,9.6,11.1,13.5,9.0,10.3,12.0,10.1,11.5,14.5,quantile 1
2323,Sud-Est,93,Provence-Alpes-Côte d'Azur,Marseille,06,Alpes-Maritimes,Nice,4,Villefranche-sur-Mer,06230,06159,43.7,7.316667,1.2,Villefranche-sur-Mer,93.0,06,688.0,528.0,127.0,21.0,9.0,3.0,0.0,0.0,0.0,0.0,15.2,28.4,14.9,11.2,11.5,13.8,24.7,14.0,11.0,10.3,16.3,30.7,15.9,11.6,11.6,9.5,14.2,19.0,9.2,12.9,16.9,9.7,15.2,20.8,quantile 4
2325,Sud-Est,93,Provence-Alpes-Côte d'Azur,Marseille,06,Alpes-Maritimes,Nice,5,Aspremont,06790,06006,43.783333,7.25,0.82,Aspremont,93.0,06,184.0,161.0,19.0,2.0,2.0,0.0,0.0,0.0,0.0,0.0,16.8,25.4,14.8,13.1,13.2,14.2,21.4,14.0,11.2,9.7,18.9,27.7,15.6,16.6,13.6,10.0,15.7,20.6,9.1,14.2,15.8,10.9,16.9,24.1,quantile 4
2339,Sud-Est,93,Provence-Alpes-Côte d'Azur,Marseille,06,Alpes-Maritimes,Nice,5,Colomars,06670,06046,43.766667,7.216667,1.64,Colomars,93.0,06,351.0,255.0,71.0,10.0,10.0,5.0,0.0,0.0,0.0,0.0,15.5,25.0,16.4,11.5,11.7,14.0,22.3,15.2,11.1,10.4,16.5,26.4,17.5,12.3,11.9,9.2,15.6,17.8,9.1,14.0,15.7,9.3,16.7,19.3,quantile 4
2340,Sud-Est,93,Provence-Alpes-Côte d'Azur,Marseille,06,Alpes-Maritimes,Nice,5,Contes,06390,06048,43.816667,7.316667,1.22,Contes,93.0,06,565.0,399.0,107.0,25.0,16.0,16.0,2.0,0.0,0.0,0.0,13.3,21.5,15.5,10.8,11.8,11.8,18.7,13.9,10.4,9.7,14.6,23.1,16.8,12.0,12.1,9.5,13.2,15.0,9.2,11.7,13.1,9.7,14.6,16.6,quantile 3
2343,Sud-Est,93,Provence-Alpes-Côte d'Azur,Marseille,06,Alpes-Maritimes,Nice,5,Drap,06340,06054,43.75,7.316667,1.2,Drap,93.0,06,324.0,226.0,66.0,13.0,9.0,8.0,1.0,1.0,0.0,0.0,12.4,21.8,14.0,10.1,11.8,10.8,17.9,12.3,10.0,9.7,13.5,23.5,15.1,10.5,12.0,9.5,12.2,14.3,9.0,10.7,12.0,9.8,13.3,15.9,quantile 2
2356,Sud-Est,93,Provence-Alpes-Côte d'Azur,Marseille,06,Alpes-Maritimes,Nice,5,Levens,06670,06075,43.866667,7.216667,0.92,Levens,93.0,06,351.0,277.0,68.0,1.0,4.0,1.0,0.0,0.0,0.0,0.0,14.2,23.0,14.9,11.3,12.1,12.5,21.1,13.7,10.8,11.2,15.4,23.7,16.0,12.4,12.2,9.5,14.2,15.8,9.4,12.7,13.2,9.7,15.3,17.7,quantile 3
2361,Sud-Est,93,Provence-Alpes-Côte d'Azur,Marseille,06,Alpes-Maritimes,Nice,5,Nice,06000,06088,43.7,7.25,1.08,Nice,93.0,06,39314.0,28345.0,8148.0,1298.0,911.0,414.0,104.0,62.0,23.0,9.0,13.2,23.5,14.5,10.5,11.0,12.1,20.9,13.7,10.4,9.2,14.1,25.1,15.2,10.8,11.4,9.7,13.1,15.4,9.3,12.1,13.6,9.9,13.8,17.0,quantile 3
2380,Sud-Est,93,Provence-Alpes-Côte d'Azur,Marseille,06,Alpes-Maritimes,Nice,5,Saint-Martin-du-Var,06670,06126,43.816667,7.2,0.7,Saint-Martin-du-Var,93.0,06,204.0,154.0,39.0,2.0,8.0,1.0,0.0,0.0,0.0,0.0,13.2,23.1,14.5,10.9,11.6,12.2,21.3,14.1,10.5,10.4,14.1,24.1,14.9,11.9,12.0,9.7,13.2,14.9,9.6,12.4,13.0,9.8,13.8,16.3,quantile 3
2390,Sud-Est,93,Provence-Alpes-Côte d'Azur,Marseille,06,Alpes-Maritimes,Nice,5,Tourrette-Levens,06690,06147,43.783333,7.266667,0.91,Tourrette-Levens,93.0,06,315.0,249.0,50.0,3.0,4.0,9.0,0.0,0.0,0.0,0.0,13.6,22.1,14.9,10.8,12.0,12.1,19.1,14.0,10.3,10.7,14.9,23.9,15.7,12.2,12.2,9.3,13.6,15.1,8.9,12.1,13.3,9.6,14.9,16.9,quantile 3
2398,Sud-Est,93,Provence-Alpes-Côte d'Azur,Marseille,06,Alpes-Maritimes,Nice,6,Cagnes-sur-Mer,06800,06027,43.666667,7.15,1.32,Cagnes-sur-Mer,93.0,06,5251.0,3861.0,1079.0,145.0,94.0,53.0,12.0,4.0,2.0,1.0,14.2,24.3,14.8,10.8,11.3,12.9,22.0,14.1,10.6,10.0,15.2,25.5,15.5,11.2,11.5,9.7,13.9,16.8,9.5,12.8,14.5,9.9,14.7,18.7,quantile 3
2399,Sud-Est,93,Provence-Alpes-Côte d'Azur,Marseille,06,Alpes-Maritimes,Nice,6,Carros,06510,06033,43.8,7.183333,1.14,Carros,93.0,06,1285.0,798.0,248.0,76.0,79.0,56.0,13.0,9.0,3.0,3.0,13.4,23.2,15.0,10.8,11.2,12.0,20.5,13.4,10.7,9.9,14.4,24.4,16.1,11.2,11.6,9.5,13.5,15.2,9.5,12.2,12.7,9.6,14.4,16.9,quantile 3
2403,Sud-Est,93,Provence-Alpes-Côte d'Azur,Marseille,06,Alpes-Maritimes,Nice,6,Gattières,06510,06064,43.766667,7.183333,1.47,Gattières,93.0,06,343.0,266.0,61.0,4.0,6.0,3.0,3.0,0.0,0.0,0.0,15.0,24.7,16.0,11.1,11.9,13.4,21.3,14.4,11.1,10.8,16.4,26.5,17.3,10.9,12.1,9.7,15.1,17.3,9.3,13.5,14.7,10.0,16.4,19.4,quantile 4
2405,Sud-Est,93,Provence-Alpes-Côte d'Azur,Marseille,06,Alpes-Maritimes,Nice,6,La Colle-sur-Loup,06480,06044,43.683333,7.1,1.2,La Colle-sur-Loup,93.0,06,798.0,614.0,149.0,19.0,9.0,6.0,0.0,0.0,1.0,0.0,18.3,28.8,16.6,11.8,12.9,14.6,22.9,14.7,11.4,11.7,21.2,31.4,18.2,12.8,13.1,9.8,17.8,21.9,9.8,14.9,15.4,9.8,20.3,26.5,quantile 4
2406,Sud-Est,93,Provence-Alpes-Côte d'Azur,Marseille,06,Alpes-Maritimes,Nice,6,La Gaude,06610,06065,43.716667,7.15,0.95,La Gaude,93.0,06,591.0,461.0,107.0,11.0,5.0,4.0,2.0,0.0,0.0,1.0,17.2,26.8,16.6,11.7,12.7,14.4,22.5,15.1,11.3,11.5,19.4,28.7,18.1,12.6,12.9,9.9,16.3,21.1,9.6,14.7,15.6,10.1,17.7,24.5,quantile 4
2410,Sud-Est,93,Provence-Alpes-Côte d'Azur,Marseille,06,Alpes-Maritimes,Nice,6,Saint-Jeannet,06640,06122,43.75,7.15,0.7,Saint-Jeannet,93.0,06,424.0,313.0,72.0,18.0,8.0,10.0,3.0,0.0,0.0,0.0,17.2,29.0,16.1,11.3,12.3,14.1,23.2,15.4,10.9,10.4,19.4,31.2,16.7,12.4,12.6,10.1,16.6,21.2,9.9,13.9,16.0,10.2,18.4,24.7,quantile 4
2411,Sud-Est,93,Provence-Alpes-Côte d'Azur,Marseille,06,Alpes-Maritimes,Nice,6,Saint-Laurent-du-Var,06700,06123,43.666667,7.183333,1.32,Saint-Laurent-du-Var,93.0,06,3469.0,2254.0,781.0,198.0,126.0,73.0,25.0,10.0,2.0,0.0,14.2,23.2,15.2,11.1,11.6,12.9,21.0,14.2,10.8,10.1,15.3,24.5,16.3,11.7,11.8,10.5,14.1,16.1,9.6,13.0,14.2,11.4,15.0,17.7,quantile 3
2412,Sud-Est,93,Provence-Alpes-Côte d'Azur,Marseille,06,Alpes-Maritimes,Nice,6,Saint-Paul,06570,06128,43.7,7.116667,1.08,Saint-Paul-de-Vence,93.0,06,557.0,426.0,119.0,5.0,4.0,2.0,1.0,0.0,0.0,0.0,18.6,30.2,18.1,11.4,12.4,14.7,23.1,15.2,11.4,9.0,21.4,33.4,20.9,11.4,12.9,9.8,18.1,22.1,9.7,14.1,17.4,9.8,21.4,25.3,quantile 4
2413,Sud-Est,93,Provence-Alpes-Côte d'Azur,Marseille,06,Alpes-Maritimes,Nice,6,Vence,06140,06157,43.716667,7.116667,1.11,Vence,93.0,06,1931.0,1499.0,350.0,44.0,23.0,9.0,4.0,2.0,0.0,0.0,15.7,27.9,15.2,11.0,11.5,13.4,22.7,14.5,10.7,11.0,17.4,30.2,15.8,11.6,11.5,9.4,15.0,19.6,9.2,13.4,15.2,9.5,16.2,22.7,quantile 4
2414,Sud-Est,93,Provence-Alpes-Côte d'Azur,Marseille,06,Alpes-Maritimes,Nice,6,Villeneuve-Loubet,06270,06161,43.65,7.116667,1.45,Villeneuve-Loubet,93.0,06,2132.0,1540.0,391.0,86.0,65.0,33.0,11.0,4.0,2.0,0.0,15.4,26.2,15.2,11.2,11.6,13.5,22.8,14.2,10.9,10.0,16.9,27.9,16.0,11.7,11.8,9.5,15.0,18.9,9.4,13.4,15.6,9.6,16.3,21.2,quantile 4
2415,Sud-Est,93,Provence-Alpes-Côte d'Azur,Marseille,06,Alpes-Maritimes,Nice,7,Antibes,06600,06004,43.583333,7.116667,1.94,Antibes,93.0,06,9554.0,6975.0,1983.0,275.0,191.0,88.0,32.0,6.0,3.0,1.0,14.9,22.8,15.0,10.9,11.4,13.2,20.6,14.1,10.6,10.4,16.3,23.8,15.7,11.4,11.6,10.2,15.0,16.9,9.7,13.4,14.2,10.7,16.2,19.1,quantile 4
2416,Sud-Est,93,Provence-Alpes-Côte d'Azur,Marseille,06,Alpes-Maritimes,Nice,7,Biot,06410,06018,43.633333,7.1,1.57,Biot,93.0,06,1576.0,1138.0,275.0,63.0,42.0,33.0,10.0,9.0,4.0,2.0,20.0,26.4,16.0,11.8,13.4,15.9,21.9,14.5,11.4,12.3,22.7,28.2,17.4,12.8,13.6,11.6,20.0,23.9,10.3,16.4,16.8,12.4,22.2,28.7,quantile 4
2422,Sud-Est,93,Provence-Alpes-Côte d'Azur,Marseille,06,Alpes-Maritimes,Nice,7,Le Rouret,06650,06112,43.683333,7.016667,1.2,Le Rouret,93.0,06,393.0,315.0,67.0,6.0,3.0,2.0,0.0,0.0,0.0,0.0,20.8,29.4,17.0,12.4,17.0,16.0,24.0,14.1,11.4,14.9,24.5,32.1,19.3,15.3,17.5,9.5,20.2,25.2,9.2,16.7,17.0,9.9,23.1,30.7,quantile 4
2423,Sud-Est,93,Provence-Alpes-Côte d'Azur,Marseille,06,Alpes-Maritimes,Nice,7,Opio,06650,06089,43.666667,6.983333,1.32,Opio,93.0,06,292.0,222.0,52.0,7.0,5.0,4.0,1.0,1.0,0.0,0.0,22.2,34.2,18.4,11.7,13.9,15.9,24.2,14.6,11.7,10.6,27.2,38.9,23.2,11.7,14.4,9.2,21.8,26.9,9.2,16.3,17.1,9.2,26.5,33.9,quantile 4
2425,Sud-Est,93,Provence-Alpes-Côte d'Azur,Marseille,06,Alpes-Maritimes,Nice,7,Tourrettes-sur-Loup,06140,06148,43.716667,7.05,0.95,Tourrettes-sur-Loup,93.0,06,476.0,395.0,73.0,6.0,1.0,1.0,0.0,0.0,0.0,0.0,17.8,29.3,15.2,10.9,12.0,14.3,21.2,15.1,10.8,13.2,20.5,32.9,15.2,11.3,11.8,9.3,16.4,23.1,9.4,14.2,16.2,9.3,18.3,27.9,quantile 4
2426,Sud-Est,93,Provence-Alpes-Côte d'Azur,Marseille,06,Alpes-Maritimes,Nice,7,Valbonne,06560,06152,43.633333,7.0,1.57,Valbonne,93.0,06,2748.0,1908.0,499.0,120.0,95.0,73.0,26.0,15.0,10.0,2.0,19.1,27.6,15.7,11.6,13.5,15.5,23.0,14.6,11.2,11.9,21.8,29.6,16.6,12.3,14.0,10.2,18.7,23.5,9.5,15.8,17.1,10.8,20.8,28.1,quantile 4
2427,Sud-Est,93,Provence-Alpes-Côte d'Azur,Marseille,06,Alpes-Maritimes,Nice,7,Vallauris,06220,06155,43.583333,7.05,1.94,Vallauris,93.0,06,3087.0,2199.0,669.0,103.0,69.0,33.0,11.0,3.0,0.0,0.0,13.5,23.4,14.1,10.6,10.9,12.0,20.5,13.6,10.3,9.8,14.6,24.7,14.5,11.2,11.1,9.5,13.3,15.9,9.3,12.1,13.4,9.8,14.3,17.8,quantile 3
2428,Sud-Est,93,Provence-Alpes-Côte d'Azur,Marseille,06,Alpes-Maritimes,Nice,8,Cannes,06400,06029,43.55,7.016667,2.19,Cannes,93.0,06,11763.0,8259.0,2717.0,351.0,258.0,121.0,33.0,17.0,5.0,2.0,13.2,25.1,14.5,10.6,10.8,12.0,21.5,13.7,10.4,9.1,14.2,27.0,15.1,10.9,11.1,9.4,13.1,15.2,9.2,12.1,13.1,9.5,13.9,17.1,quantile 3
2429,Sud-Est,93,Provence-Alpes-Côte d'Azur,Marseille,06,Alpes-Maritimes,Nice,8,Mandelieu-la-Napoule,06210,06079,43.55,6.933333,2.19,Mandelieu-la-Napoule,93.0,06,2682.0,1889.0,565.0,104.0,74.0,39.0,6.0,1.0,4.0,0.0,14.0,24.7,14.6,10.7,11.2,12.4,20.9,13.9,10.5,9.7,15.3,26.7,15.2,11.1,11.4,9.6,13.9,16.5,9.3,12.5,13.9,9.9,15.0,18.4,quantile 3
2434,Sud-Est,93,Provence-Alpes-Côte d'Azur,Marseille,06,Alpes-Maritimes,Nice,9,Auribeau-sur-Siagne,06810,06007,43.6,6.916667,1.82,Auribeau-sur-Siagne,93.0,06,253.0,207.0,40.0,3.0,2.0,0.0,1.0,0.0,0.0,0.0,15.6,27.3,14.7,10.9,11.2,12.9,21.8,13.3,10.6,9.3,17.6,29.6,16.0,11.6,11.4,9.3,15.4,18.3,8.8,13.6,12.9,9.9,16.9,21.6,quantile 4
2441,Sud-Est,93,Provence-Alpes-Côte d'Azur,Marseille,06,Alpes-Maritimes,Nice,9,Grasse,06130,06069,43.666667,6.916667,1.49,Grasse,93.0,06,4641.0,3436.0,865.0,148.0,104.0,56.0,17.0,10.0,4.0,1.0,14.4,26.2,14.5,10.7,11.4,12.7,22.3,13.6,10.6,10.3,15.7,28.0,15.2,11.0,11.7,9.5,14.3,17.2,9.3,12.7,14.1,9.7,15.4,19.8,quantile 3
2442,Sud-Est,93,Provence-Alpes-Côte d'Azur,Marseille,06,Alpes-Maritimes,Nice,9,La Roquette-sur-Siagne,06550,06108,43.6,6.95,1.82,La Roquette-sur-Siagne,93.0,06,493.0,369.0,101.0,11.0,10.0,1.0,1.0,0.0,0.0,0.0,15.5,25.3,15.9,11.3,11.0,13.3,21.4,14.1,11.0,9.6,17.2,27.0,17.3,12.0,11.3,9.6,15.3,18.6,9.2,13.4,14.8,9.9,16.7,21.6,quantile 4
2443,Sud-Est,93,Provence-Alpes-Côte d'Azur,Marseille,06,Alpes-Maritimes,Nice,9,Le Cannet,06110,06030,43.566667,7.016667,2.07,Le Cannet,93.0,06,3974.0,2999.0,772.0,93.0,65.0,34.0,5.0,4.0,2.0,0.0,13.3,23.3,14.7,10.7,11.0,12.2,20.7,14.1,10.5,9.3,14.3,24.8,15.3,11.2,11.4,9.4,13.4,15.0,9.1,12.4,13.3,9.7,14.2,16.4,quantile 3
2446,Sud-Est,93,Provence-Alpes-Côte d'Azur,Marseille,06,Alpes-Maritimes,Nice,9,Le Tignet,06530,06140,43.65,6.85,1.45,Le Tignet,93.0,06,290.0,223.0,55.0,5.0,5.0,2.0,0.0,0.0,0.0,0.0,15.4,26.2,15.9,11.0,11.6,13.1,21.8,14.0,10.4,10.8,17.2,28.3,17.3,12.1,11.8,9.5,15.2,18.7,9.3,13.2,14.6,9.7,16.7,21.1,quantile 4
2447,Sud-Est,93,Provence-Alpes-Côte d'Azur,Marseille,06,Alpes-Maritimes,Nice,9,Mouans-Sartoux,06370,06084,43.616667,6.966667,1.69,Mouans-Sartoux,93.0,06,1558.0,1037.0,335.0,74.0,63.0,32.0,15.0,1.0,1.0,0.0,17.5,27.6,15.9,11.8,11.7,14.4,22.6,14.6,11.3,11.9,19.8,29.7,17.3,12.9,11.6,9.3,17.3,20.7,8.8,14.5,16.1,9.7,19.5,23.8,quantile 4
2448,Sud-Est,93,Provence-Alpes-Côte d'Azur,Marseille,06,Alpes-Maritimes,Nice,9,Mougins,06250,06085,43.6,7.0,1.82,Mougins,93.0,06,3034.0,2144.0,599.0,126.0,84.0,52.0,20.0,6.0,3.0,0.0,17.0,26.6,16.2,11.3,12.3,14.2,21.8,14.6,11.0,10.9,19.2,28.9,17.6,11.9,12.5,9.9,16.7,21.4,9.7,14.5,15.6,10.2,18.4,25.6,quantile 4
2449,Sud-Est,93,Provence-Alpes-Côte d'Azur,Marseille,06,Alpes-Maritimes,Nice,9,Pégomas,06580,06090,43.6,6.933333,1.82,Pégomas,93.0,06,706.0,497.0,145.0,24.0,15.0,20.0,5.0,0.0,0.0,0.0,14.3,24.3,14.4,11.1,11.4,12.5,21.0,13.2,10.7,9.7,15.7,25.8,15.5,11.9,11.7,9.5,14.4,16.3,9.2,12.8,13.5,9.8,15.7,18.5,quantile 3
2450,Sud-Est,93,Provence-Alpes-Côte d'Azur,Marseille,06,Alpes-Maritimes,Nice,9,Peymeinade,06530,06095,43.633333,6.883333,1.66,Peymeinade,93.0,06,699.0,527.0,140.0,23.0,5.0,4.0,0.0,0.0,0.0,0.0,15.3,26.2,15.3,10.7,12.1,12.8,21.9,13.8,10.6,10.8,17.2,27.9,16.4,10.9,12.4,9.5,14.8,18.9,9.4,12.7,15.0,9.5,16.5,21.5,quantile 4
2452,Sud-Est,93,Provence-Alpes-Côte d'Azur,Marseille,06,Alpes-Maritimes,Nice,9,Saint-Cézaire-sur-Siagne,06780,06118,43.65,6.8,1.74,Saint-Cézaire-sur-Siagne,93.0,06,331.0,259.0,58.0,4.0,5.0,3.0,2.0,0.0,0.0,0.0,15.0,27.3,14.5,11.1,11.7,12.6,20.9,13.4,11.0,10.2,16.7,29.8,15.4,11.6,12.0,9.5,15.0,17.8,9.1,12.9,13.6,9.8,16.7,20.9,quantile 4
2453,Sud-Est,93,Provence-Alpes-Côte d'Azur,Marseille,06,Alpes-Maritimes,Nice,9,Saint-Vallier-de-Thiey,06460,06130,43.7,6.85,1.45,Saint-Vallier-de-Thiey,93.0,06,333.0,259.0,62.0,8.0,2.0,2.0,0.0,0.0,0.0,0.0,14.2,24.2,14.7,10.8,11.7,12.4,20.6,13.7,10.3,10.7,15.6,25.8,15.5,12.1,11.9,9.8,14.7,15.8,9.3,12.7,13.2,10.2,16.2,17.7,quantile 3
2471,Sud-Est,82,Rhône-Alpes,Lyon,07,Ardèche,Privas,1,Bourg-Saint-Andéol,07700,07042,44.366667,4.65,1.82,Bourg-Saint-Andéol,82.0,07,372.0,245.0,101.0,8.0,10.0,6.0,1.0,0.0,1.0,0.0,13.6,24.8,16.0,9.8,11.0,11.4,21.5,13.4,9.7,10.0,14.8,25.9,16.9,10.2,11.2,9.9,13.4,15.8,9.1,11.7,11.7,10.2,14.2,17.9,quantile 3
2475,Sud-Est,82,Rhône-Alpes,Lyon,07,Ardèche,Privas,1,Charmes-sur-Rhône,07800,07055,44.866667,4.833333,1.9,Charmes-sur-Rhône,82.0,07,142.0,96.0,35.0,3.0,5.0,2.0,0.0,1.0,0.0,0.0,14.0,26.0,14.6,11.0,11.0,12.1,19.1,13.5,10.7,9.7,15.3,28.4,15.5,11.7,11.3,9.6,13.7,17.0,9.1,12.2,13.1,9.9,14.8,19.5,quantile 3
2477,Sud-Est,82,Rhône-Alpes,Lyon,07,Ardèche,Privas,1,Cheylard (Le),07160,07064,44.9,4.416667,0.55,Le Cheylard,82.0,07,285.0,157.0,96.0,15.0,7.0,4.0,3.0,1.0,2.0,0.0,13.2,24.7,13.8,10.2,11.4,11.4,20.5,12.4,9.9,9.5,14.2,26.5,14.6,11.1,11.7,9.7,13.1,14.3,9.3,11.5,11.8,9.9,14.1,15.9,quantile 3
2478,Sud-Est,82,Rhône-Alpes,Lyon,07,Ardèche,Privas,1,Chomérac,07210,07066,44.7,4.65,0.99,Chomérac,82.0,07,149.0,117.0,28.0,2.0,1.0,0.0,1.0,0.0,0.0,0.0,13.1,22.4,14.7,10.4,10.8,11.7,17.5,13.1,10.1,9.8,14.0,24.7,15.9,10.9,11.0,9.6,12.7,15.5,9.3,11.5,13.2,9.7,13.5,16.9,quantile 2
2481,Sud-Est,82,Rhône-Alpes,Lyon,07,Ardèche,Privas,1,Cruas,07350,07076,44.65,4.766667,1.57,Cruas,82.0,07,115.0,84.0,20.0,4.0,0.0,3.0,3.0,0.0,0.0,1.0,14.5,25.1,18.6,10.1,12.0,11.2,20.4,14.1,9.8,9.8,16.2,26.1,19.9,11.5,12.4,10.1,14.4,16.7,9.3,11.3,11.6,10.5,16.0,18.8,quantile 3
2502,Sud-Est,82,Rhône-Alpes,Lyon,07,Ardèche,Privas,1,Pouzin (Le),07250,07181,44.75,4.75,1.48,Le Pouzin,82.0,07,233.0,139.0,61.0,9.0,8.0,10.0,4.0,2.0,0.0,0.0,12.0,22.3,14.8,10.0,10.4,10.8,19.7,12.5,9.8,9.5,12.7,23.1,16.3,10.6,10.6,9.6,11.6,14.1,9.0,10.6,12.3,10.0,12.2,15.2,quantile 1
2504,Sud-Est,82,Rhône-Alpes,Lyon,07,Ardèche,Privas,1,Privas,07000,07186,44.733333,4.6,0.74,Privas,82.0,07,690.0,357.0,227.0,49.0,36.0,10.0,7.0,2.0,0.0,2.0,12.2,22.8,14.0,10.2,9.8,11.7,21.2,13.5,10.1,8.8,12.6,23.8,14.4,10.6,10.1,9.2,11.6,14.7,9.2,10.8,14.1,9.3,12.1,15.3,quantile 2
2505,Sud-Est,82,Rhône-Alpes,Lyon,07,Ardèche,Privas,1,Rochemaure,07400,07191,44.583333,4.7,1.24,Rochemaure,82.0,07,132.0,101.0,22.0,5.0,3.0,1.0,0.0,0.0,0.0,0.0,15.4,28.2,16.5,10.0,11.3,11.9,21.8,13.0,9.9,10.5,17.2,29.7,17.9,10.4,11.4,9.7,15.7,16.3,9.0,12.3,12.1,10.3,17.5,18.5,quantile 4
2520,Sud-Est,82,Rhône-Alpes,Lyon,07,Ardèche,Privas,1,Saint-Georges-les-Bains,07800,07240,44.866667,4.816667,1.81,Saint-Georges-les-Bains,82.0,07,95.0,74.0,16.0,2.0,1.0,2.0,0.0,0.0,0.0,0.0,13.9,23.1,14.3,10.7,11.3,12.1,19.8,13.2,10.4,9.9,15.2,24.2,15.0,12.3,11.5,9.6,14.0,15.3,9.4,12.1,13.1,9.8,15.3,16.5,quantile 3
2531,Sud-Est,82,Rhône-Alpes,Lyon,07,Ardèche,Privas,1,Saint-Marcel-d'Ardèche,07700,07264,44.316667,4.616667,2.04,Saint-Marcel-d'Ardèche,82.0,07,125.0,99.0,22.0,0.0,4.0,0.0,0.0,0.0,0.0,0.0,15.3,24.0,16.8,10.9,11.4,12.2,20.9,13.0,9.6,10.8,16.8,25.1,18.3,13.5,11.6,9.8,14.2,19.3,9.2,12.1,13.5,10.1,15.4,21.4,quantile 4
2551,Sud-Est,82,Rhône-Alpes,Lyon,07,Ardèche,Privas,1,Teil (Le),07400,07319,44.55,4.683333,1.15,Le Teil,82.0,07,489.0,342.0,110.0,18.0,12.0,4.0,1.0,2.0,0.0,0.0,12.4,23.4,15.2,9.8,11.0,10.7,19.8,12.6,9.7,9.6,13.5,24.7,16.5,10.2,11.3,9.5,12.2,14.4,9.0,10.7,11.7,9.8,13.0,16.1,quantile 2
2555,Sud-Est,82,Rhône-Alpes,Lyon,07,Ardèche,Privas,1,Viviers,07220,07346,44.483333,4.683333,1.31,Viviers,82.0,07,200.0,146.0,46.0,3.0,3.0,1.0,1.0,0.0,0.0,0.0,13.5,28.8,16.0,10.1,10.9,11.1,20.6,12.9,9.8,9.7,14.8,32.0,17.2,11.0,11.2,9.6,13.1,16.6,9.0,11.3,11.7,10.0,14.1,18.7,quantile 3
2556,Sud-Est,82,Rhône-Alpes,Lyon,07,Ardèche,Privas,1,Voulte-sur-Rhône (La),07800,07349,44.8,4.783333,1.65,La Voulte-sur-Rhône,82.0,07,328.0,205.0,91.0,10.0,10.0,7.0,4.0,1.0,0.0,0.0,11.8,22.1,13.7,10.1,10.5,10.8,20.3,12.7,9.6,8.9,12.4,22.9,14.4,11.4,10.8,9.5,11.7,13.2,9.4,10.8,11.3,9.6,12.3,14.5,quantile 1
2559,Sud-Est,82,Rhône-Alpes,Lyon,07,Ardèche,Privas,2,Annonay,07100,07010,45.233333,4.666667,2.03,Annonay,82.0,07,1082.0,646.0,301.0,55.0,41.0,15.0,16.0,5.0,2.0,1.0,12.2,24.3,13.5,10.2,10.7,10.8,19.6,12.3,9.9,9.2,13.0,26.3,14.2,10.9,11.1,9.6,12.1,13.9,9.1,10.7,11.9,9.9,12.8,15.4,quantile 2
2565,Sud-Est,82,Rhône-Alpes,Lyon,07,Ardèche,Privas,2,Boulieu-lès-Annonay,07100,07041,45.266667,4.666667,2.18,Boulieu-lès-Annonay,82.0,07,118.0,77.0,28.0,5.0,6.0,2.0,0.0,0.0,0.0,0.0,12.5,22.5,13.9,10.3,11.0,11.2,18.7,13.1,10.1,9.8,13.2,24.0,14.4,10.8,11.2,9.7,12.4,14.3,8.9,11.0,12.7,10.1,13.1,15.4,quantile 2
2576,Sud-Est,82,Rhône-Alpes,Lyon,07,Ardèche,Privas,2,Cornas,07130,07070,44.966667,4.85,1.98,Cornas,82.0,07,85.0,61.0,22.0,1.0,1.0,0.0,0.0,0.0,0.0,0.0,13.1,22.1,14.2,10.6,11.2,11.6,19.1,13.2,10.5,9.6,14.0,23.1,14.7,10.8,11.4,9.0,13.5,13.6,8.7,12.0,11.8,9.2,14.4,15.1,quantile 2
2578,Sud-Est,82,Rhône-Alpes,Lyon,07,Ardèche,Privas,2,Davézieux,07430,07078,45.25,4.716667,2.1,Davézieux,82.0,07,370.0,153.0,133.0,39.0,26.0,13.0,4.0,2.0,0.0,0.0,13.0,24.1,14.0,10.6,11.3,12.1,22.3,13.7,10.4,10.5,13.6,24.8,14.2,11.1,11.5,10.0,12.7,15.3,9.7,11.9,13.2,10.1,13.1,16.7,quantile 2
2591,Sud-Est,82,Rhône-Alpes,Lyon,07,Ardèche,Privas,2,Lamastre,07270,07129,44.983333,4.583333,0.92,Lamastre,82.0,07,235.0,133.0,79.0,14.0,5.0,3.0,1.0,0.0,0.0,0.0,10.9,18.8,12.6,9.4,10.0,9.6,14.2,10.9,9.3,8.7,11.7,20.3,13.5,9.6,10.4,8.9,10.7,11.8,8.7,9.6,9.9,9.0,11.5,13.2,quantile 1
2606,Sud-Est,82,Rhône-Alpes,Lyon,07,Ardèche,Privas,2,Roiffieux,07100,07197,45.233333,4.65,2.03,Roiffieux,82.0,07,89.0,62.0,21.0,4.0,1.0,1.0,0.0,0.0,0.0,0.0,12.5,23.1,14.2,10.4,10.3,10.9,19.8,11.8,10.1,9.0,13.4,24.4,15.6,11.2,10.7,9.2,12.4,14.2,9.0,11.0,11.9,9.4,13.4,15.4,quantile 2
2607,Sud-Est,82,Rhône-Alpes,Lyon,07,Ardèche,Privas,2,Saint-Agrève,07320,07204,45.016667,4.4,1.07,Saint-Agrève,82.0,07,200.0,130.0,48.0,9.0,2.0,8.0,1.0,2.0,0.0,0.0,11.2,21.2,13.1,9.7,10.3,10.1,18.6,11.8,9.6,9.2,11.9,21.8,14.0,10.2,10.6,9.3,11.1,12.0,9.1,10.1,10.5,9.5,11.8,13.2,quantile 1
2619,Sud-Est,82,Rhône-Alpes,Lyon,07,Ardèche,Privas,2,Saint-Jean-de-Muzols,07300,07245,45.083333,4.816667,1.81,Saint-Jean-de-Muzols,82.0,07,140.0,90.0,35.0,8.0,6.0,1.0,0.0,0.0,0.0,0.0,13.5,25.6,13.8,10.3,11.0,11.6,21.6,12.5,10.2,10.5,14.9,26.6,14.8,10.6,11.1,9.3,13.4,14.9,9.1,11.5,12.5,9.5,14.8,16.5,quantile 3
2624,Sud-Est,82,Rhône-Alpes,Lyon,07,Ardèche,Privas,2,Saint-Péray,07130,07281,44.95,4.833333,1.9,Saint-Péray,82.0,07,532.0,342.0,129.0,29.0,22.0,8.0,2.0,0.0,0.0,0.0,15.2,26.5,14.9,11.0,10.9,12.5,22.0,13.7,10.7,9.5,16.9,27.8,15.6,11.9,11.2,9.4,14.6,18.6,9.2,12.3,14.3,9.5,16.1,21.3,quantile 4
2632,Sud-Est,82,Rhône-Alpes,Lyon,07,Ardèche,Privas,2,Sarras,07370,07308,45.183333,4.8,1.81,Sarras,82.0,07,103.0,69.0,26.0,3.0,2.0,2.0,0.0,0.0,1.0,0.0,12.5,21.3,14.5,10.6,11.3,11.8,19.2,13.9,10.3,10.8,12.9,22.6,14.9,11.3,11.4,9.3,12.4,14.0,8.9,11.4,13.5,9.6,12.9,14.4,quantile 2
2637,Sud-Est,82,Rhône-Alpes,Lyon,07,Ardèche,Privas,2,Soyons,07130,07316,44.883333,4.85,1.98,Soyons,82.0,07,139.0,97.0,35.0,3.0,1.0,2.0,1.0,0.0,0.0,0.0,14.9,24.0,14.9,10.8,11.7,12.5,20.0,13.4,10.6,10.3,16.4,25.3,15.7,11.6,12.0,10.2,14.5,17.6,9.9,12.2,14.1,10.4,15.9,19.8,quantile 4
2644,Sud-Est,82,Rhône-Alpes,Lyon,07,Ardèche,Privas,2,Vernosc-lès-Annonay,07430,07337,45.216667,4.716667,1.95,Vernosc-lès-Annonay,82.0,07,64.0,47.0,13.0,1.0,2.0,1.0,0.0,0.0,0.0,0.0,13.3,22.7,14.5,10.6,11.5,11.3,19.4,12.0,10.4,10.3,14.5,23.5,15.8,11.6,11.8,9.5,13.1,15.4,9.3,11.2,12.2,9.6,14.2,17.6,quantile 3
2655,Sud-Est,82,Rhône-Alpes,Lyon,07,Ardèche,Privas,3,Aubenas,07200,07019,44.616667,4.383333,0.71,Aubenas,82.0,07,1410.0,790.0,420.0,94.0,54.0,34.0,15.0,2.0,1.0,0.0,11.7,22.2,13.3,9.7,10.1,11.0,21.3,12.8,9.7,9.4,12.3,22.7,13.8,9.8,10.3,9.0,11.5,13.8,8.9,10.9,12.4,9.1,11.9,15.0,quantile 1
2741,Sud-Est,82,Rhône-Alpes,Lyon,07,Ardèche,Privas,3,Ruoms,07120,07201,44.45,4.35,1.45,Ruoms,82.0,07,293.0,184.0,81.0,14.0,9.0,3.0,2.0,0.0,0.0,0.0,10.5,21.9,14.1,9.5,8.3,9.8,23.6,12.6,9.5,6.2,11.1,21.0,15.4,9.5,9.3,8.0,10.4,11.8,7.8,9.8,10.5,8.1,10.9,13.2,quantile 1
2756,Sud-Est,82,Rhône-Alpes,Lyon,07,Ardèche,Privas,3,Saint-Etienne-de-Fontbellon,07200,07231,44.6,4.383333,0.78,Saint-Étienne-de-Fontbellon,82.0,07,184.0,124.0,43.0,7.0,8.0,1.0,0.0,0.0,1.0,0.0,12.5,25.6,13.1,10.0,10.8,11.1,19.7,12.9,9.7,10.0,13.7,28.3,13.3,10.8,11.0,9.2,11.9,15.8,8.8,11.1,12.7,9.6,12.6,17.9,quantile 2
2789,Sud-Est,82,Rhône-Alpes,Lyon,07,Ardèche,Privas,3,Vallon-Pont-d'Arc,07150,07330,44.4,4.4,1.67,Vallon-Pont-d'Arc,82.0,07,402.0,306.0,80.0,10.0,2.0,4.0,0.0,0.0,0.0,0.0,11.7,23.7,13.2,9.6,10.6,10.6,21.0,12.0,9.4,9.5,12.6,24.9,14.5,10.1,10.7,9.0,11.5,13.7,9.0,10.3,11.9,9.0,12.4,15.7,quantile 1
2790,Sud-Est,82,Rhône-Alpes,Lyon,07,Ardèche,Privas,3,Vals-les-Bains,07600,07331,44.666667,4.366667,0.87,Vals-les-Bains,82.0,07,264.0,184.0,60.0,10.0,3.0,6.0,1.0,0.0,0.0,0.0,11.3,23.4,13.0,9.5,10.3,10.2,18.4,12.0,9.2,9.6,12.0,25.9,13.8,10.2,10.4,8.7,11.0,13.5,8.8,10.3,10.9,8.6,11.5,15.3,quantile 1
2791,Sud-Est,82,Rhône-Alpes,Lyon,07,Ardèche,Privas,3,Vans (Les),07140,07334,44.4,4.133333,1.67,Les Vans,82.0,07,376.0,252.0,101.0,13.0,6.0,4.0,0.0,0.0,0.0,0.0,11.2,24.4,13.7,9.4,10.0,10.5,20.8,13.2,9.2,8.7,11.8,26.6,14.2,9.8,10.2,9.2,10.7,13.1,8.4,10.2,11.6,9.7,11.1,14.2,quantile 1
2794,Sud-Est,82,Rhône-Alpes,Lyon,07,Ardèche,Privas,3,Villeneuve-de-Berg,07170,07341,44.55,4.5,1.0,Villeneuve-de-Berg,82.0,07,183.0,125.0,45.0,5.0,6.0,2.0,0.0,0.0,0.0,0.0,12.1,22.5,13.4,9.6,10.5,10.4,16.3,11.9,9.5,9.2,13.1,23.6,14.4,9.8,10.7,9.1,11.8,15.3,9.0,10.4,11.6,9.1,12.6,16.9,quantile 1
2839,Est,21,Champagne-Ardenne,Châlons-en-Champagne,08,Ardennes,Charleville-Mézières,1,Charleville-Mézières,08000,08105,49.766667,4.716667,1.0,Charleville-Mézières,21.0,08,3146.0,1951.0,814.0,167.0,113.0,67.0,17.0,11.0,4.0,2.0,12.5,24.1,13.6,10.1,10.7,11.3,20.1,12.7,9.9,9.6,13.3,26.0,14.2,10.4,10.9,9.4,12.1,14.8,9.2,11.3,12.6,9.6,12.6,16.3,quantile 2
2920,Est,21,Champagne-Ardenne,Châlons-en-Champagne,08,Ardennes,Charleville-Mézières,1,Nouvion-sur-Meuse,08160,08327,49.7,4.8,0.78,Nouvion-sur-Meuse,21.0,08,60.0,49.0,9.0,0.0,1.0,1.0,0.0,0.0,0.0,0.0,12.3,22.6,13.4,10.2,12.0,10.8,16.2,12.3,9.9,11.8,13.2,23.9,14.0,11.3,12.1,9.7,12.3,13.6,9.1,10.7,12.5,10.3,13.1,14.2,quantile 2
2933,Est,21,Champagne-Ardenne,Châlons-en-Champagne,08,Ardennes,Charleville-Mézières,1,Rethel,08300,08362,49.516667,4.366667,1.24,Rethel,21.0,08,541.0,292.0,155.0,35.0,36.0,18.0,1.0,4.0,0.0,0.0,11.9,21.9,13.9,9.9,10.7,10.8,19.3,12.9,9.8,9.0,12.6,23.0,14.4,10.3,11.0,9.5,11.9,13.3,9.0,10.8,11.7,9.7,12.5,14.1,quantile 1
2977,Est,21,Champagne-Ardenne,Châlons-en-Champagne,08,Ardennes,Charleville-Mézières,1,Villers-Semeuse,08000,08480,49.733333,4.75,0.84,Villers-Semeuse,21.0,08,183.0,91.0,57.0,16.0,12.0,3.0,2.0,0.0,1.0,1.0,12.8,25.1,14.3,10.4,11.1,11.0,19.0,13.1,9.9,10.1,13.8,26.7,14.9,11.7,11.3,9.9,11.9,15.2,9.7,10.8,11.9,10.1,12.6,17.1,quantile 2
2981,Est,21,Champagne-Ardenne,Châlons-en-Champagne,08,Ardennes,Charleville-Mézières,1,Vivier-au-Court,08440,08488,49.733333,4.833333,1.4,Vivier-au-Court,21.0,08,137.0,74.0,41.0,7.0,2.0,9.0,0.0,1.0,3.0,0.0,13.1,29.3,14.2,10.1,11.0,11.3,22.7,11.5,9.9,10.1,13.9,31.8,15.6,10.7,11.2,9.6,12.4,15.5,9.0,11.0,12.8,10.0,13.1,16.6,quantile 2
2994,Est,21,Champagne-Ardenne,Châlons-en-Champagne,08,Ardennes,Charleville-Mézières,2,Charleville-Mézières,08000,08105,49.766667,4.716667,1.0,Charleville-Mézières,21.0,08,3146.0,1951.0,814.0,167.0,113.0,67.0,17.0,11.0,4.0,2.0,12.5,24.1,13.6,10.1,10.7,11.3,20.1,12.7,9.9,9.6,13.3,26.0,14.2,10.4,10.9,9.4,12.1,14.8,9.2,11.3,12.6,9.6,12.6,16.3,quantile 2
3007,Est,21,Champagne-Ardenne,Châlons-en-Champagne,08,Ardennes,Charleville-Mézières,2,Fumay,08170,08185,49.983333,4.7,2.41,Fumay,21.0,08,155.0,99.0,44.0,4.0,4.0,1.0,2.0,1.0,0.0,0.0,11.1,20.2,13.4,9.9,10.4,10.0,19.6,11.6,9.6,9.0,11.5,20.5,14.4,10.7,10.7,8.9,10.8,12.4,8.1,9.9,10.8,9.3,11.1,13.2,quantile 1
3009,Est,21,Champagne-Ardenne,Châlons-en-Champagne,08,Ardennes,Charleville-Mézières,2,Givet,08600,08190,50.133333,4.816667,-1.0,Givet,21.0,08,440.0,276.0,105.0,30.0,20.0,8.0,1.0,0.0,0.0,0.0,13.9,27.1,16.5,9.5,11.1,11.2,21.5,14.0,9.1,8.9,15.0,28.8,17.5,10.4,11.3,10.3,13.9,15.4,9.3,11.4,11.7,10.8,14.9,16.8,quantile 3
3030,Est,21,Champagne-Ardenne,Châlons-en-Champagne,08,Ardennes,Charleville-Mézières,2,Monthermé,08800,08302,49.883333,4.733333,1.76,Monthermé,21.0,08,129.0,80.0,37.0,5.0,3.0,1.0,3.0,0.0,0.0,0.0,12.1,24.7,14.5,9.8,11.0,11.3,23.6,13.8,9.8,10.4,12.5,25.2,14.8,9.9,11.2,9.4,12.2,12.7,9.3,11.4,11.6,9.5,12.5,13.3,quantile 1
3035,Est,21,Champagne-Ardenne,Châlons-en-Champagne,08,Ardennes,Charleville-Mézières,2,Nouzonville,08700,08328,49.816667,4.75,1.33,Nouzonville,21.0,08,254.0,157.0,71.0,13.0,8.0,5.0,0.0,0.0,0.0,0.0,11.9,19.6,13.8,9.9,11.1,11.0,19.1,12.6,9.8,10.7,12.3,19.7,14.5,10.3,11.2,9.1,11.6,13.2,8.8,10.7,12.4,9.4,12.1,13.6,quantile 1
3041,Est,21,Champagne-Ardenne,Châlons-en-Champagne,08,Ardennes,Charleville-Mézières,2,Revin,08500,08363,49.933333,4.633333,2.09,Revin,21.0,08,292.0,186.0,75.0,10.0,11.0,9.0,0.0,0.0,1.0,0.0,12.0,24.1,14.4,9.7,11.1,11.2,21.9,12.3,9.8,10.7,12.4,25.2,15.6,9.3,11.2,9.5,11.6,13.6,9.5,10.8,12.5,9.5,12.0,14.1,quantile 1
3043,Est,21,Champagne-Ardenne,Châlons-en-Champagne,08,Ardennes,Charleville-Mézières,2,Rocroi,08230,08367,49.916667,4.516667,1.98,Rocroi,21.0,08,115.0,71.0,28.0,10.0,1.0,4.0,1.0,0.0,0.0,0.0,11.9,21.5,14.3,9.9,10.9,10.4,14.5,12.8,9.6,10.2,12.6,23.9,15.0,11.0,11.0,9.0,11.9,13.3,8.1,10.3,11.9,9.3,12.6,13.9,quantile 1
3056,Est,21,Champagne-Ardenne,Châlons-en-Champagne,08,Ardennes,Charleville-Mézières,2,Vireux-Wallerand,08320,08487,50.077839,4.72466,-1.0,Vireux-Wallerand,21.0,08,63.0,36.0,19.0,6.0,0.0,1.0,1.0,0.0,0.0,0.0,15.0,30.2,17.2,9.7,11.1,10.8,18.3,14.3,9.5,9.9,17.0,31.1,18.3,10.1,11.3,9.3,14.3,18.1,9.0,10.5,11.9,9.5,16.2,21.0,quantile 4
3076,Est,21,Champagne-Ardenne,Châlons-en-Champagne,08,Ardennes,Charleville-Mézières,3,Bazeilles,08140,08053,49.666667,4.983333,1.66,Bazeilles,21.0,08,118.0,58.0,35.0,7.0,8.0,7.0,2.0,0.0,1.0,0.0,12.9,22.4,14.2,10.3,11.7,11.2,18.4,12.5,10.3,10.6,14.1,23.5,15.2,10.3,12.0,9.7,12.7,14.6,9.4,11.2,11.9,9.9,13.6,16.4,quantile 2
3093,Est,21,Champagne-Ardenne,Châlons-en-Champagne,08,Ardennes,Charleville-Mézières,3,Carignan,08110,08090,49.633333,5.166667,2.2,Carignan,21.0,08,172.0,102.0,52.0,9.0,4.0,3.0,0.0,2.0,0.0,0.0,11.7,20.2,13.1,9.8,11.1,10.5,17.4,12.6,9.6,10.3,12.5,21.2,13.4,10.3,11.3,9.5,11.6,12.7,9.1,10.3,11.4,9.9,12.3,13.8,quantile 1
3110,Est,21,Champagne-Ardenne,Châlons-en-Champagne,08,Ardennes,Charleville-Mézières,3,Donchery,08350,08142,49.7,4.866667,0.91,Donchery,21.0,08,135.0,78.0,36.0,6.0,9.0,3.0,2.0,1.0,0.0,0.0,12.2,22.0,14.4,10.1,11.3,11.0,18.2,12.8,9.7,11.2,12.9,23.6,15.3,11.4,11.4,9.8,12.0,13.5,8.8,11.1,11.5,10.3,12.6,14.7,quantile 2
3120,Est,21,Champagne-Ardenne,Châlons-en-Champagne,08,Ardennes,Charleville-Mézières,3,Floing,08200,08174,49.716667,4.933333,1.19,Floing,21.0,08,85.0,66.0,14.0,2.0,2.0,1.0,0.0,0.0,0.0,0.0,12.9,23.9,14.2,11.0,11.4,11.6,21.2,12.3,10.5,10.2,13.7,25.3,15.3,12.3,11.6,9.4,12.5,15.0,8.7,11.6,12.6,9.7,13.1,16.0,quantile 2
3183,Est,21,Champagne-Ardenne,Châlons-en-Champagne,08,Ardennes,Charleville-Mézières,3,Mouzon,08210,08311,49.6,5.083333,1.84,Mouzon,21.0,08,112.0,69.0,27.0,8.0,2.0,3.0,0.0,2.0,1.0,0.0,12.7,24.3,14.7,9.6,11.5,10.7,19.4,12.7,9.4,10.1,13.8,25.8,15.8,10.7,11.7,9.5,12.4,14.7,8.7,10.9,11.2,9.9,13.2,16.2,quantile 2
3221,Est,21,Champagne-Ardenne,Châlons-en-Champagne,08,Ardennes,Charleville-Mézières,3,Sedan,08200,08409,49.7,4.95,1.27,Sedan,21.0,08,1089.0,691.0,301.0,46.0,31.0,13.0,3.0,4.0,0.0,0.0,11.8,21.7,13.5,9.7,11.1,10.5,18.2,12.5,9.5,9.9,12.5,23.0,14.0,10.2,11.3,9.4,11.6,13.3,9.1,10.6,11.1,9.7,12.1,14.6,quantile 1
3255,Est,21,Champagne-Ardenne,Châlons-en-Champagne,08,Ardennes,Charleville-Mézières,3,Vouziers,08400,08490,49.4,4.7,1.4,Vouziers,21.0,08,323.0,186.0,89.0,22.0,16.0,8.0,0.0,2.0,0.0,0.0,11.7,21.7,15.0,9.6,10.4,10.4,18.6,12.9,9.5,9.9,12.4,22.5,15.7,9.7,10.5,9.3,11.6,12.8,8.5,10.5,10.8,9.6,12.2,13.8,quantile 1
3256,Est,21,Champagne-Ardenne,Châlons-en-Champagne,08,Ardennes,Charleville-Mézières,3,Vrigne-aux-Bois,08330,08491,49.733333,4.85,0.84,Vrigne-aux-Bois,21.0,08,174.0,101.0,40.0,9.0,11.0,10.0,1.0,2.0,0.0,0.0,12.6,24.5,14.3,10.2,11.2,11.0,19.7,13.2,10.1,10.5,13.4,25.8,14.7,10.9,11.4,9.1,12.3,14.5,8.9,10.8,12.2,9.3,13.0,15.9,quantile 2
3327,Sud-Ouest,73,Midi-Pyrénées,Toulouse,09,Ariège,Foix,1,Foix,09000,09122,42.966667,1.6,0.27,Foix,73.0,09,916.0,560.0,253.0,51.0,31.0,15.0,5.0,0.0,1.0,0.0,12.4,21.8,13.8,9.9,10.5,11.2,17.9,12.7,9.8,9.1,13.2,23.9,14.5,10.1,10.8,9.3,12.1,14.8,8.9,11.1,12.6,9.6,12.6,16.7,quantile 2
3349,Sud-Ouest,73,Midi-Pyrénées,Toulouse,09,Ariège,Foix,1,Lavelanet,09300,09160,42.933333,1.85,1.36,Lavelanet,73.0,09,540.0,362.0,137.0,14.0,12.0,14.0,1.0,0.0,0.0,0.0,11.0,23.5,13.4,9.4,10.2,10.5,20.8,13.2,9.6,9.6,11.3,24.6,13.6,9.1,10.3,8.8,11.0,11.7,9.0,10.2,11.4,8.7,11.4,11.9,quantile 1
3435,Sud-Ouest,73,Midi-Pyrénées,Toulouse,09,Ariège,Foix,1,Tarascon-sur-Ariège,09400,09306,42.85,1.6,1.05,Tarascon-sur-Ariège,73.0,09,253.0,138.0,76.0,18.0,8.0,12.0,1.0,0.0,0.0,0.0,12.1,21.9,14.5,9.7,11.3,10.6,18.4,12.0,9.6,9.7,12.8,23.1,15.9,9.8,11.4,9.1,11.8,13.8,8.4,10.5,11.7,9.5,12.4,14.8,quantile 1
3442,Sud-Ouest,73,Midi-Pyrénées,Toulouse,09,Ariège,Foix,1,Varilhes,09120,09324,43.05,1.633333,0.74,Varilhes,73.0,09,230.0,169.0,43.0,9.0,5.0,3.0,1.0,0.0,0.0,0.0,12.1,22.9,13.6,9.9,10.1,11.4,21.8,12.9,9.8,9.2,12.5,23.5,14.0,10.0,10.3,9.1,11.9,13.5,8.6,11.1,13.2,9.4,12.6,13.7,quantile 1
3449,Sud-Ouest,73,Midi-Pyrénées,Toulouse,09,Ariège,Foix,1,Verniolle,09340,09332,43.083333,1.633333,1.04,Verniolle,73.0,09,151.0,94.0,36.0,6.0,7.0,4.0,3.0,0.0,1.0,0.0,13.0,23.6,13.9,10.3,10.9,11.3,20.1,12.2,9.9,9.8,14.0,25.1,14.6,11.4,11.1,9.6,12.9,14.9,9.6,11.4,11.7,9.6,13.8,17.3,quantile 2
3510,Sud-Ouest,73,Midi-Pyrénées,Toulouse,09,Ariège,Foix,2,Laroque-d'Olmes,09600,09157,42.966667,1.866667,1.44,Laroque-d'Olmes,73.0,09,178.0,108.0,54.0,7.0,4.0,3.0,0.0,2.0,0.0,0.0,11.4,21.3,13.0,9.8,10.2,10.5,18.8,12.8,9.7,9.4,12.0,21.9,13.2,10.0,10.4,9.0,11.5,12.0,7.8,10.4,10.9,9.3,12.1,12.7,quantile 1
3512,Sud-Ouest,73,Midi-Pyrénées,Toulouse,09,Ariège,Foix,2,La Tour-du-Crieu,09100,09312,43.1,1.633333,1.19,La Tour-du-Crieu,73.0,09,130.0,104.0,19.0,6.0,0.0,1.0,0.0,0.0,0.0,0.0,12.7,21.4,14.2,10.3,11.4,11.3,17.5,13.2,10.2,9.7,13.6,22.9,14.8,10.6,11.7,9.6,12.8,14.0,8.5,11.4,12.3,10.2,13.8,15.0,quantile 2
3524,Sud-Ouest,73,Midi-Pyrénées,Toulouse,09,Ariège,Foix,2,Lézat-sur-Lèze,09210,09167,43.283333,1.35,2.83,Lézat-sur-Lèze,73.0,09,167.0,112.0,46.0,4.0,1.0,2.0,2.0,0.0,0.0,0.0,12.4,24.0,14.0,9.9,10.6,11.2,19.5,13.1,9.8,9.3,13.4,26.2,14.6,10.1,10.9,9.3,12.5,13.3,8.8,11.7,10.7,9.6,13.1,15.3,quantile 2
3539,Sud-Ouest,73,Midi-Pyrénées,Toulouse,09,Ariège,Foix,2,Mirepoix,09500,09194,43.083333,1.883333,1.51,Mirepoix,73.0,09,341.0,243.0,77.0,13.0,6.0,1.0,1.0,0.0,0.0,0.0,12.0,23.2,13.2,9.7,10.0,10.6,19.8,12.0,9.4,9.1,12.9,24.4,14.2,10.5,10.1,9.0,11.9,13.2,8.8,10.1,12.4,9.1,13.2,13.7,quantile 1
3552,Sud-Ouest,73,Midi-Pyrénées,Toulouse,09,Ariège,Foix,2,Pamiers,09100,09225,43.116667,1.6,1.34,Pamiers,73.0,09,1416.0,900.0,338.0,76.0,64.0,23.0,12.0,2.0,0.0,1.0,11.9,23.9,13.5,9.7,10.4,10.6,20.6,12.4,9.6,8.8,12.8,25.0,14.4,9.9,10.7,9.3,11.7,14.2,8.9,10.5,11.8,9.5,12.4,15.8,quantile 1
3567,Sud-Ouest,73,Midi-Pyrénées,Toulouse,09,Ariège,Foix,2,Saint-Girons,09200,09261,42.983333,1.15,1.69,Saint-Girons,73.0,09,689.0,420.0,208.0,31.0,20.0,7.0,2.0,0.0,1.0,0.0,11.7,19.9,14.7,9.8,10.7,10.5,18.1,12.7,9.6,8.1,12.7,20.9,16.3,10.4,11.2,9.1,11.8,12.8,8.8,10.3,11.5,9.3,12.8,13.9,quantile 1
3568,Sud-Ouest,73,Midi-Pyrénées,Toulouse,09,Ariège,Foix,2,Saint-Jean-du-Falga,09100,09265,43.083333,1.616667,1.04,Saint-Jean-du-Falga,73.0,09,175.0,84.0,70.0,11.0,8.0,1.0,0.0,1.0,0.0,0.0,12.4,26.1,13.6,9.9,10.6,11.0,22.6,12.4,9.7,7.9,13.2,27.7,14.4,10.4,10.9,9.2,11.9,14.9,9.2,10.9,12.1,9.2,12.6,16.4,quantile 2
3577,Sud-Ouest,73,Midi-Pyrénées,Toulouse,09,Ariège,Foix,2,Saverdun,09700,09282,43.233333,1.583333,2.39,Saverdun,73.0,09,319.0,216.0,78.0,11.0,9.0,4.0,1.0,0.0,0.0,0.0,12.5,22.8,13.5,10.0,11.2,10.9,18.2,12.5,9.7,9.0,13.5,24.8,14.2,10.7,11.4,9.6,12.5,13.9,9.3,11.0,11.6,9.8,13.6,15.2,quantile 2
3596,Est,21,Champagne-Ardenne,Châlons-en-Champagne,10,Aube,Troyes,1,Arcis-sur-Aube,10700,10006,48.533333,4.133333,1.61,Arcis-sur-Aube,21.0,10,203.0,113.0,62.0,11.0,8.0,7.0,2.0,0.0,0.0,0.0,11.6,19.3,14.8,9.6,11.0,10.5,18.8,13.7,9.2,9.6,12.2,19.6,15.5,10.6,11.1,9.3,11.4,13.1,8.8,10.4,11.8,9.6,11.9,13.7,quantile 1
3609,Est,21,Champagne-Ardenne,Châlons-en-Champagne,10,Aube,Troyes,1,Bar-sur-Aube,10200,10033,48.233333,4.716667,1.95,Bar-sur-Aube,21.0,10,397.0,212.0,130.0,24.0,17.0,7.0,3.0,3.0,1.0,0.0,11.6,21.4,14.1,10.2,10.4,10.3,17.3,12.8,9.9,8.7,12.5,23.7,14.8,11.0,10.9,9.4,11.2,13.1,8.9,10.3,10.9,9.7,11.9,14.7,quantile 1
3623,Est,21,Champagne-Ardenne,Châlons-en-Champagne,10,Aube,Troyes,1,Brienne-le-Château,10500,10064,48.4,4.533333,1.29,Brienne-le-Château,21.0,10,196.0,112.0,59.0,10.0,7.0,6.0,2.0,0.0,0.0,0.0,11.7,24.6,13.6,9.6,10.6,10.2,20.4,11.7,9.2,9.1,12.7,26.6,15.1,10.9,10.8,9.6,11.9,12.1,8.9,10.4,10.3,10.0,12.8,13.3,quantile 1
3726,Est,21,Champagne-Ardenne,Châlons-en-Champagne,10,Aube,Troyes,1,Pont-Sainte-Marie,10150,10297,48.316667,4.1,1.14,Pont-Sainte-Marie,21.0,10,392.0,165.0,144.0,41.0,26.0,9.0,2.0,2.0,2.0,1.0,12.0,23.1,14.3,9.8,10.1,10.6,19.2,12.5,9.6,9.1,13.1,24.7,15.6,10.2,10.4,9.1,11.9,13.5,8.8,10.7,11.4,9.3,12.7,15.3,quantile 1
3746,Est,21,Champagne-Ardenne,Châlons-en-Champagne,10,Aube,Troyes,1,Saint-Parres-aux-Tertres,10410,10357,48.3,4.116667,1.44,Saint-Parres-aux-Tertres,21.0,10,262.0,118.0,90.0,31.0,13.0,6.0,3.0,0.0,0.0,1.0,12.6,23.5,14.8,10.3,9.5,11.0,20.9,13.1,10.0,8.3,13.8,24.3,16.0,11.2,9.9,8.7,12.6,14.2,8.3,11.4,11.4,9.0,13.5,16.0,quantile 2
3760,Est,21,Champagne-Ardenne,Châlons-en-Champagne,10,Aube,Troyes,1,Troyes,10000,10387,48.3,4.083333,0.34,Troyes,21.0,10,3856.0,2395.0,1038.0,169.0,130.0,71.0,31.0,16.0,4.0,2.0,11.8,23.0,13.5,9.7,9.9,10.9,20.1,12.7,9.6,8.9,12.5,24.6,14.1,9.9,10.2,9.5,11.9,13.4,9.1,11.1,11.9,9.8,12.4,14.8,quantile 1
3769,Est,21,Champagne-Ardenne,Châlons-en-Champagne,10,Aube,Troyes,1,Vendeuvre-sur-Barse,10140,10401,48.233333,4.466667,1.05,Vendeuvre-sur-Barse,21.0,10,149.0,93.0,35.0,6.0,6.0,5.0,2.0,1.0,1.0,0.0,11.1,21.6,13.2,9.7,10.2,10.0,15.0,12.2,9.4,9.2,11.9,23.4,14.1,10.9,10.4,9.2,10.9,12.2,9.0,9.9,10.6,9.4,11.5,13.2,quantile 1
3786,Est,21,Champagne-Ardenne,Châlons-en-Champagne,10,Aube,Troyes,2,Aix-en-Othe,10160,10003,48.216667,3.733333,1.61,Aix-en-Othe,21.0,10,140.0,93.0,37.0,5.0,4.0,1.0,0.0,0.0,0.0,0.0,11.2,20.2,12.8,9.5,10.3,10.3,19.6,11.7,9.5,9.6,11.9,20.5,13.6,9.7,10.6,9.5,11.1,12.2,9.1,10.3,10.5,9.7,11.7,13.3,quantile 1
3795,Est,21,Champagne-Ardenne,Châlons-en-Champagne,10,Aube,Troyes,2,Bar-sur-Seine,10110,10034,48.116667,4.366667,1.3,Bar-sur-Seine,21.0,10,273.0,144.0,89.0,17.0,16.0,4.0,3.0,0.0,0.0,0.0,11.4,24.2,12.7,9.5,10.0,10.5,21.7,12.6,9.3,8.9,12.0,25.1,12.8,10.1,10.2,9.1,10.8,13.8,8.5,10.5,11.1,9.3,11.1,15.8,quantile 1
3803,Est,21,Champagne-Ardenne,Châlons-en-Champagne,10,Aube,Troyes,2,Bréviandes,10800,10060,48.25,4.1,0.86,Bréviandes,21.0,10,147.0,80.0,33.0,13.0,13.0,6.0,1.0,1.0,0.0,0.0,13.4,23.0,15.5,10.5,10.5,12.0,20.6,13.2,9.9,8.7,14.3,24.7,17.3,12.1,10.8,9.7,13.4,14.5,9.1,12.3,12.5,10.1,14.2,16.4,quantile 3
3891,Est,21,Champagne-Ardenne,Châlons-en-Champagne,10,Aube,Troyes,2,Rosières-près-Troyes,10430,10325,48.266667,4.066667,1.0,Rosières-près-Troyes,21.0,10,255.0,142.0,70.0,19.0,7.0,9.0,5.0,3.0,0.0,0.0,13.7,24.3,15.1,10.4,10.7,12.0,20.7,13.0,10.4,10.8,15.0,25.4,16.8,10.5,10.7,10.4,13.4,15.9,9.0,11.8,13.6,11.5,14.6,17.4,quantile 3
3895,Est,21,Champagne-Ardenne,Châlons-en-Champagne,10,Aube,Troyes,2,Saint-André-les-Vergers,10120,10333,48.283333,4.05,1.45,Saint-André-les-Vergers,21.0,10,598.0,362.0,146.0,37.0,26.0,15.0,8.0,2.0,2.0,0.0,12.8,24.1,13.8,10.4,10.4,11.5,20.3,12.8,10.2,9.3,13.8,25.8,14.6,10.7,10.7,9.4,12.5,14.8,9.1,11.4,12.6,9.5,13.3,16.9,quantile 2
3897,Est,21,Champagne-Ardenne,Châlons-en-Champagne,10,Aube,Troyes,2,Saint-Germain,10120,10340,48.25,4.033333,0.52,Saint-Germain,21.0,10,124.0,88.0,26.0,8.0,1.0,1.0,0.0,0.0,0.0,0.0,12.5,21.2,13.8,10.3,11.3,11.4,20.3,13.5,10.1,9.1,13.3,21.6,14.0,10.8,11.9,9.4,12.4,13.6,9.1,11.5,12.0,9.6,13.1,14.7,quantile 2
3899,Est,21,Champagne-Ardenne,Châlons-en-Champagne,10,Aube,Troyes,2,Saint-Julien-les-Villas,10800,10343,48.266667,4.1,1.27,Saint-Julien-les-Villas,21.0,10,399.0,199.0,149.0,22.0,13.0,9.0,4.0,2.0,1.0,0.0,12.9,23.6,13.8,10.0,10.9,11.5,19.8,12.9,9.8,9.1,14.0,26.3,14.3,10.6,11.3,9.5,12.7,14.5,9.3,11.7,12.1,9.7,13.6,16.3,quantile 2
3909,Est,21,Champagne-Ardenne,Châlons-en-Champagne,10,Aube,Troyes,2,Troyes,10000,10387,48.3,4.083333,0.34,Troyes,21.0,10,3856.0,2395.0,1038.0,169.0,130.0,71.0,31.0,16.0,4.0,2.0,11.8,23.0,13.5,9.7,9.9,10.9,20.1,12.7,9.6,8.9,12.5,24.6,14.1,9.9,10.2,9.5,11.9,13.4,9.1,11.1,11.9,9.8,12.4,14.8,quantile 1
3964,Est,21,Champagne-Ardenne,Châlons-en-Champagne,10,Aube,Troyes,3,La Chapelle-Saint-Luc,10600,10081,48.333333,4.05,1.58,La Chapelle-Saint-Luc,21.0,10,689.0,317.0,211.0,68.0,46.0,34.0,7.0,1.0,4.0,1.0,11.1,23.3,13.2,9.7,9.9,10.4,19.2,12.5,9.8,8.9,11.5,25.6,13.6,9.7,10.2,9.1,10.9,12.4,8.9,10.5,10.9,9.2,11.2,13.4,quantile 1
3968,Est,21,Champagne-Ardenne,Châlons-en-Champagne,10,Aube,Troyes,3,La Rivière-de-Corps,10440,10321,48.283333,4.033333,1.0,La Rivière-de-Corps,21.0,10,144.0,102.0,29.0,3.0,6.0,2.0,1.0,0.0,1.0,0.0,14.7,24.8,14.3,10.9,11.0,12.4,19.7,13.1,10.7,9.4,16.4,26.9,15.0,11.5,11.4,9.4,14.2,17.2,9.4,12.1,13.4,9.5,15.6,19.9,quantile 4
3974,Est,21,Champagne-Ardenne,Châlons-en-Champagne,10,Aube,Troyes,3,Les Noës-près-Troyes,10420,10265,48.3,4.033333,0.52,Les Noës-près-Troyes,21.0,10,71.0,58.0,9.0,2.0,0.0,2.0,0.0,0.0,0.0,0.0,11.4,22.9,13.7,9.7,10.2,10.5,19.8,13.8,9.7,8.8,12.0,24.1,13.7,9.9,10.6,8.9,11.4,12.4,9.0,10.5,11.2,8.8,12.0,13.2,quantile 1
3986,Est,21,Champagne-Ardenne,Châlons-en-Champagne,10,Aube,Troyes,3,Nogent-sur-Seine,10400,10268,48.483333,3.5,2.45,Nogent-sur-Seine,21.0,10,392.0,212.0,112.0,21.0,20.0,16.0,6.0,3.0,1.0,1.0,14.5,26.6,16.4,10.2,10.9,12.4,22.1,14.2,10.1,9.3,15.8,28.5,17.6,10.5,11.3,10.7,14.6,16.7,10.2,12.6,13.0,11.0,15.6,19.0,quantile 3
4004,Est,21,Champagne-Ardenne,Châlons-en-Champagne,10,Aube,Troyes,3,Romilly-sur-Seine,10100,10323,48.516667,3.716667,1.67,Romilly-sur-Seine,21.0,10,709.0,422.0,206.0,28.0,27.0,18.0,5.0,0.0,2.0,1.0,11.6,22.2,14.3,9.7,10.7,10.2,19.3,12.8,9.5,8.9,12.3,23.4,15.0,10.0,11.1,9.5,11.6,12.6,8.8,10.3,10.6,9.9,12.2,13.8,quantile 1
4006,Est,21,Champagne-Ardenne,Châlons-en-Champagne,10,Aube,Troyes,3,Sainte-Savine,10300,10362,48.3,4.05,1.94,Sainte-Savine,21.0,10,590.0,372.0,135.0,23.0,32.0,14.0,8.0,4.0,2.0,0.0,12.9,23.7,13.9,10.2,10.3,11.6,19.5,13.0,10.0,9.4,13.9,26.2,14.6,10.8,10.6,9.2,12.6,14.9,9.1,11.6,12.5,9.4,13.4,16.8,quantile 2
4011,Est,21,Champagne-Ardenne,Châlons-en-Champagne,10,Aube,Troyes,3,Saint-Lyé,10600,10349,48.366667,4.0,0.64,Saint-Lyé,21.0,10,126.0,86.0,28.0,4.0,7.0,1.0,0.0,0.0,0.0,0.0,13.7,25.3,14.6,10.3,11.0,12.0,20.8,13.9,9.9,9.8,14.9,27.6,15.0,11.7,11.2,9.7,13.2,16.3,9.2,11.8,13.4,10.0,14.3,18.4,quantile 3
4022,Est,21,Champagne-Ardenne,Châlons-en-Champagne,10,Aube,Troyes,3,Troyes,10000,10387,48.3,4.083333,0.34,Troyes,21.0,10,3856.0,2395.0,1038.0,169.0,130.0,71.0,31.0,16.0,4.0,2.0,11.8,23.0,13.5,9.7,9.9,10.9,20.1,12.7,9.6,8.9,12.5,24.6,14.1,9.9,10.2,9.5,11.9,13.4,9.1,11.1,11.9,9.8,12.4,14.8,quantile 1
4042,Sud-Ouest,91,Languedoc-Roussillon,Montpellier,11,Aude,Carcassonne,1,Carcassonne,11000,11069,43.216667,2.35,0.68,Carcassonne,91.0,11,4338.0,2616.0,1163.0,240.0,176.0,101.0,30.0,9.0,3.0,0.0,11.8,22.3,13.3,9.9,9.6,11.1,19.8,12.8,9.9,8.4,12.3,23.6,13.9,10.0,9.8,8.9,11.5,13.7,8.7,10.8,12.7,9.1,12.0,14.5,quantile 1
4090,Sud-Ouest,91,Languedoc-Roussillon,Montpellier,11,Aude,Carcassonne,1,Palaja,11570,11272,43.166667,2.383333,0.69,Palaja,91.0,11,95.0,78.0,15.0,0.0,2.0,0.0,0.0,0.0,0.0,0.0,13.1,21.7,14.2,10.6,9.9,11.9,18.7,13.3,9.9,9.3,14.2,23.1,14.9,12.1,10.0,8.6,13.0,14.5,8.5,11.5,13.3,8.7,14.4,15.3,quantile 2
4091,Sud-Ouest,91,Languedoc-Roussillon,Montpellier,11,Aude,Carcassonne,1,Pennautier,11610,11279,43.25,2.333333,1.0,Pennautier,91.0,11,117.0,98.0,16.0,1.0,1.0,0.0,0.0,1.0,0.0,0.0,11.7,21.9,13.4,10.1,9.3,10.5,19.3,12.2,9.8,8.4,12.5,22.6,14.0,11.3,9.5,8.8,11.4,13.1,8.7,10.5,11.1,8.8,12.1,14.2,quantile 1
4099,Sud-Ouest,91,Languedoc-Roussillon,Montpellier,11,Aude,Carcassonne,1,Rieux-Minervois,11160,11315,43.283333,2.583333,1.41,Rieux-Minervois,91.0,11,136.0,89.0,30.0,9.0,5.0,3.0,0.0,0.0,0.0,0.0,11.0,18.6,12.9,10.1,9.3,10.4,15.6,12.4,9.7,8.6,11.4,19.5,13.3,11.0,9.4,9.3,10.8,12.2,8.5,10.5,10.8,9.6,11.1,13.1,quantile 1
4118,Sud-Ouest,91,Languedoc-Roussillon,Montpellier,11,Aude,Carcassonne,1,Trèbes,11800,11397,43.216667,2.433333,0.98,Trèbes,91.0,11,321.0,213.0,76.0,15.0,12.0,2.0,3.0,0.0,0.0,0.0,11.5,20.8,13.3,10.0,9.9,10.9,19.3,12.3,9.7,8.9,11.9,21.8,14.0,10.5,10.1,9.1,11.2,13.2,9.0,10.8,12.0,9.1,11.6,13.9,quantile 1
4128,Sud-Ouest,91,Languedoc-Roussillon,Montpellier,11,Aude,Carcassonne,1,Villemoustaussou,11620,11429,43.25,2.366667,0.91,Villemoustaussou,91.0,11,165.0,133.0,23.0,3.0,5.0,1.0,0.0,0.0,0.0,0.0,12.9,24.8,14.1,10.4,10.2,11.1,17.6,12.6,10.2,8.9,14.3,26.7,15.3,10.9,10.4,9.6,12.4,15.0,9.4,11.0,12.1,9.9,13.6,16.4,quantile 2
4146,Sud-Ouest,91,Languedoc-Roussillon,Montpellier,11,Aude,Carcassonne,2,Coursan,11110,11106,43.233333,3.066667,2.8,Coursan,91.0,11,344.0,258.0,66.0,13.0,4.0,1.0,2.0,0.0,0.0,0.0,11.7,19.6,13.7,10.2,10.3,10.8,18.3,12.0,9.9,9.6,12.2,20.2,14.7,10.9,10.4,9.5,11.6,13.0,9.1,10.7,12.0,9.8,12.1,13.6,quantile 1
4150,Sud-Ouest,91,Languedoc-Roussillon,Montpellier,11,Aude,Carcassonne,2,Cuxac-d'Aude,11590,11116,43.25,3.0,2.55,Cuxac-d'Aude,91.0,11,231.0,184.0,38.0,4.0,2.0,2.0,1.0,0.0,0.0,0.0,11.5,20.6,14.4,9.9,9.7,10.3,17.9,13.5,9.7,7.3,12.4,22.1,15.0,10.6,10.5,8.8,11.0,13.8,8.5,10.0,11.9,8.9,11.7,15.3,quantile 1
4159,Sud-Ouest,91,Languedoc-Roussillon,Montpellier,11,Aude,Carcassonne,2,Fleury,11560,11145,43.22838,3.135,-1.0,Fleury,91.0,11,350.0,278.0,63.0,8.0,1.0,0.0,0.0,0.0,0.0,0.0,11.8,22.2,14.3,9.6,10.2,10.8,20.1,13.4,9.4,8.7,12.4,22.8,15.2,10.1,10.4,8.7,11.8,13.4,8.6,10.9,11.6,8.7,12.3,14.4,quantile 1
4164,Sud-Ouest,91,Languedoc-Roussillon,Montpellier,11,Aude,Carcassonne,2,Gruissan,11430,11170,43.1,3.083333,2.86,Gruissan,91.0,11,656.0,518.0,116.0,11.0,8.0,2.0,1.0,0.0,0.0,0.0,11.9,21.1,14.3,9.8,10.3,11.1,18.6,13.7,9.6,8.7,12.6,22.3,14.9,10.1,10.5,9.0,11.5,14.0,9.0,10.8,12.3,9.1,11.9,15.3,quantile 1
4168,Sud-Ouest,91,Languedoc-Roussillon,Montpellier,11,Aude,Carcassonne,2,Leucate,11370,11202,42.916667,3.033333,2.67,Leucate,91.0,11,600.0,466.0,116.0,10.0,6.0,2.0,0.0,0.0,0.0,0.0,11.3,20.8,13.4,9.5,8.9,10.9,18.9,13.2,9.3,8.0,11.7,21.8,13.5,9.7,9.1,8.6,11.1,13.3,9.0,10.8,12.0,8.3,11.3,14.2,quantile 1
4169,Sud-Ouest,91,Languedoc-Roussillon,Montpellier,11,Aude,Carcassonne,2,Lézignan-Corbières,11200,11203,43.2,2.766667,1.67,Lézignan-Corbières,91.0,11,819.0,497.0,210.0,46.0,33.0,25.0,4.0,4.0,0.0,0.0,11.4,22.6,13.0,9.8,10.1,10.6,20.5,12.0,9.7,9.0,11.9,23.5,13.7,9.8,10.2,8.8,11.1,13.4,8.7,10.4,12.0,8.9,11.6,14.3,quantile 1
4180,Sud-Ouest,91,Languedoc-Roussillon,Montpellier,11,Aude,Carcassonne,2,Narbonne,11100,11262,43.183333,3.0,2.55,Narbonne,91.0,11,5237.0,3442.0,1250.0,225.0,186.0,86.0,33.0,10.0,5.0,0.0,12.2,21.8,13.9,10.0,10.1,11.2,19.3,12.9,9.7,8.9,12.9,23.2,14.6,10.4,10.3,9.4,11.9,14.5,9.2,11.1,12.7,9.5,12.5,15.9,quantile 2
4183,Sud-Ouest,91,Languedoc-Roussillon,Montpellier,11,Aude,Carcassonne,2,Ouveillan,11590,11269,43.3,2.966667,2.42,Ouveillan,91.0,11,122.0,91.0,29.0,0.0,2.0,0.0,0.0,0.0,0.0,0.0,12.2,22.0,14.4,10.1,10.8,11.4,23.4,13.0,9.8,9.5,12.8,21.4,15.9,10.9,10.9,9.6,12.2,13.8,8.8,11.4,12.9,10.2,12.8,14.3,quantile 2
4189,Sud-Ouest,91,Languedoc-Roussillon,Montpellier,11,Aude,Carcassonne,2,Port-la-Nouvelle,11210,11266,43.016667,3.05,2.73,Port-la-Nouvelle,91.0,11,418.0,289.0,91.0,21.0,9.0,3.0,3.0,2.0,0.0,0.0,11.3,20.1,14.5,9.4,10.6,10.2,17.1,12.4,9.3,9.1,11.9,21.3,16.1,9.7,10.7,9.2,11.0,13.1,8.4,10.3,10.6,9.7,11.3,14.4,quantile 1
4202,Sud-Ouest,91,Languedoc-Roussillon,Montpellier,11,Aude,Carcassonne,2,Sallèles-d'Aude,11590,11369,43.266667,2.95,2.36,Sallèles-d'Aude,91.0,11,156.0,127.0,20.0,4.0,3.0,2.0,0.0,0.0,0.0,0.0,12.5,23.9,14.2,10.8,10.3,10.8,14.0,13.2,9.9,8.9,13.5,27.8,14.8,13.3,10.4,9.2,12.1,15.5,9.2,10.8,11.4,9.2,12.9,17.8,quantile 2
4203,Sud-Ouest,91,Languedoc-Roussillon,Montpellier,11,Aude,Carcassonne,2,Salles-d'Aude,11110,11370,43.233333,3.116667,2.98,Salles-d'Aude,91.0,11,127.0,100.0,18.0,4.0,1.0,3.0,1.0,0.0,0.0,0.0,12.9,22.8,14.6,9.9,10.9,11.1,17.6,13.5,9.8,9.8,13.9,24.0,15.2,10.2,11.0,9.9,12.3,15.6,9.2,10.9,12.4,10.2,13.3,17.2,quantile 2
4204,Sud-Ouest,91,Languedoc-Roussillon,Montpellier,11,Aude,Carcassonne,2,Sigean,11130,11379,43.033333,2.983333,2.48,Sigean,91.0,11,397.0,293.0,78.0,17.0,2.0,6.0,1.0,0.0,0.0,0.0,11.7,21.2,14.4,9.7,10.5,10.3,17.9,12.4,9.4,8.2,12.5,22.8,15.4,10.3,10.7,8.9,11.6,13.2,8.9,10.3,11.2,8.9,12.5,14.3,quantile 1
4213,Sud-Ouest,91,Languedoc-Roussillon,Montpellier,11,Aude,Carcassonne,2,Vinassan,11110,11441,43.2,3.066667,2.8,Vinassan,91.0,11,110.0,88.0,16.0,1.0,3.0,1.0,1.0,0.0,0.0,0.0,13.0,20.3,15.7,10.0,10.9,11.5,16.5,14.0,9.9,9.2,14.1,22.1,16.7,10.4,11.1,9.2,13.0,14.2,8.9,11.6,12.3,9.6,14.1,15.4,quantile 2
4240,Sud-Ouest,91,Languedoc-Roussillon,Montpellier,11,Aude,Carcassonne,3,Bram,11150,11049,43.25,2.116667,0.91,Bram,91.0,11,238.0,147.0,64.0,10.0,5.0,10.0,2.0,0.0,0.0,0.0,11.5,22.2,13.5,9.8,10.1,10.4,20.4,13.0,9.3,8.9,12.1,22.9,13.8,11.1,10.2,8.6,11.2,13.0,8.0,10.6,11.0,9.0,11.7,14.4,quantile 1
4257,Sud-Ouest,91,Languedoc-Roussillon,Montpellier,11,Aude,Carcassonne,3,Castelnaudary,11400,11076,43.316667,1.95,1.39,Castelnaudary,91.0,11,967.0,570.0,287.0,48.0,33.0,21.0,5.0,2.0,1.0,0.0,11.9,21.7,13.5,9.7,10.0,10.6,18.2,12.8,9.6,8.6,12.7,23.2,13.9,10.0,10.3,8.9,12.2,12.6,8.3,10.9,11.2,9.3,13.0,13.7,quantile 1
4338,Sud-Ouest,91,Languedoc-Roussillon,Montpellier,11,Aude,Carcassonne,3,Limoux,11300,11206,43.066667,2.233333,1.01,Limoux,91.0,11,904.0,552.0,254.0,44.0,28.0,16.0,6.0,4.0,0.0,0.0,11.2,22.5,12.9,9.5,9.5,10.7,20.5,12.7,9.5,8.5,11.6,23.2,13.2,9.5,9.7,8.8,10.7,13.2,8.6,10.5,12.0,9.0,10.9,14.2,quantile 1
4390,Sud-Ouest,91,Languedoc-Roussillon,Montpellier,11,Aude,Carcassonne,3,Quillan,11500,11304,42.866667,2.183333,1.72,Quillan,91.0,11,327.0,217.0,85.0,18.0,2.0,5.0,0.0,0.0,0.0,0.0,11.0,20.5,12.9,9.2,10.2,10.1,18.9,11.5,9.2,8.8,11.5,21.2,14.1,9.0,10.4,8.9,10.6,12.2,8.4,10.1,10.6,9.3,10.9,13.2,quantile 1
4471,Sud-Ouest,73,Midi-Pyrénées,Toulouse,12,Aveyron,Rodez,1,Bozouls,12340,12033,44.466667,2.716667,0.75,Bozouls,73.0,12,241.0,149.0,58.0,13.0,8.0,7.0,5.0,1.0,0.0,0.0,12.1,21.8,13.2,10.2,10.5,11.5,20.0,12.5,10.0,9.3,12.6,23.2,13.7,10.9,10.6,9.3,12.0,13.4,9.2,11.3,13.0,9.4,12.7,13.8,quantile 1
4484,Sud-Ouest,73,Midi-Pyrénées,Toulouse,12,Aveyron,Rodez,1,Druelle,12510,12090,44.35,2.5,0.42,Druelle,73.0,12,95.0,58.0,29.0,0.0,5.0,1.0,2.0,0.0,0.0,0.0,13.5,21.6,14.6,10.6,11.5,11.7,18.1,12.6,10.3,11.2,14.7,22.9,16.1,11.4,11.6,9.1,13.3,15.1,8.9,11.7,12.6,9.3,14.5,16.5,quantile 3
4486,Sud-Ouest,73,Midi-Pyrénées,Toulouse,12,Aveyron,Rodez,1,Espalion,12500,12096,44.516667,2.766667,0.98,Espalion,73.0,12,460.0,266.0,148.0,21.0,14.0,10.0,1.0,0.0,0.0,0.0,11.5,21.4,13.2,9.8,10.4,10.5,17.9,12.0,9.5,9.8,12.2,23.3,14.0,10.6,10.5,9.0,11.5,12.9,8.8,10.6,11.0,9.2,12.1,14.4,quantile 1
4504,Sud-Ouest,73,Midi-Pyrénées,Toulouse,12,Aveyron,Rodez,1,Le Monastère,12000,12146,44.35,2.583333,1.0,Le Monastère,73.0,12,93.0,70.0,16.0,1.0,2.0,4.0,0.0,0.0,0.0,0.0,13.1,22.2,14.1,10.1,10.9,11.6,18.3,13.7,10.0,10.2,14.1,23.6,14.3,10.5,11.1,9.1,13.2,14.3,9.1,11.7,12.5,9.1,14.2,15.6,quantile 2
4506,Sud-Ouest,73,Midi-Pyrénées,Toulouse,12,Aveyron,Rodez,1,Luc,12450,12133,44.316667,2.533333,1.0,Luc-la-Primaube,73.0,12,413.0,250.0,97.0,27.0,18.0,17.0,4.0,0.0,0.0,0.0,12.5,21.4,14.0,10.4,10.8,11.3,18.2,12.9,10.3,9.0,13.5,22.6,14.7,10.9,11.2,9.3,12.3,14.6,8.8,11.2,12.4,9.7,13.0,16.3,quantile 2
4516,Sud-Ouest,73,Midi-Pyrénées,Toulouse,12,Aveyron,Rodez,1,Olemps,12510,12174,44.35,2.566667,1.3,Olemps,73.0,12,184.0,101.0,48.0,14.0,10.0,6.0,3.0,1.0,0.0,1.0,13.2,22.1,13.9,10.6,11.5,11.7,18.6,12.8,10.3,10.7,14.3,23.5,14.7,11.6,11.6,9.5,12.7,15.1,9.8,11.3,12.7,9.4,13.7,16.9,quantile 3
4517,Sud-Ouest,73,Midi-Pyrénées,Toulouse,12,Aveyron,Rodez,1,Onet-le-Château,12850,12176,44.383333,2.533333,1.0,Onet-le-Château,73.0,12,777.0,381.0,232.0,66.0,40.0,39.0,12.0,6.0,0.0,1.0,12.5,23.3,13.7,10.0,10.9,11.2,18.6,12.8,9.8,10.1,13.4,25.6,14.3,10.3,11.1,9.2,12.2,14.7,9.1,11.0,12.5,9.3,13.0,16.4,quantile 2
4524,Sud-Ouest,73,Midi-Pyrénées,Toulouse,12,Aveyron,Rodez,1,Rodez,12000,12202,44.333333,2.566667,1.0,Rodez,73.0,12,2282.0,1262.0,681.0,129.0,111.0,63.0,27.0,8.0,1.0,0.0,12.6,23.2,13.4,10.0,10.4,11.5,19.9,12.8,9.9,9.6,13.4,24.8,13.8,10.2,10.6,9.3,12.3,15.5,9.0,11.3,13.5,9.5,12.9,17.2,quantile 2
4535,Sud-Ouest,73,Midi-Pyrénées,Toulouse,12,Aveyron,Rodez,1,Salles-la-Source,12330,12254,44.433333,2.516667,0.98,Salles-la-Source,73.0,12,115.0,78.0,30.0,3.0,1.0,2.0,1.0,0.0,0.0,0.0,13.2,21.7,13.8,10.3,11.0,12.1,20.1,12.8,10.1,10.2,14.0,22.6,14.4,10.9,11.2,8.9,13.0,14.6,8.7,11.6,13.6,9.0,14.1,15.4,quantile 3
4536,Sud-Ouest,73,Midi-Pyrénées,Toulouse,12,Aveyron,Rodez,1,Sébazac-Concourès,12740,12264,44.416667,2.6,1.0,Sébazac-Concourès,73.0,12,186.0,122.0,44.0,7.0,6.0,4.0,3.0,0.0,0.0,0.0,12.8,23.0,14.0,10.4,10.6,11.7,22.0,13.1,10.1,8.4,13.6,23.4,14.7,11.2,10.9,9.0,12.4,15.1,8.7,11.2,13.7,9.1,13.3,16.1,quantile 2
4550,Sud-Ouest,73,Midi-Pyrénées,Toulouse,12,Aveyron,Rodez,2,Aubin,12110,12013,44.533333,2.25,1.28,Aubin,73.0,12,185.0,134.0,32.0,7.0,8.0,3.0,1.0,0.0,0.0,0.0,11.7,22.7,12.9,9.9,11.1,10.6,19.1,12.1,9.9,10.0,12.4,23.8,13.3,10.1,11.4,9.7,11.6,12.6,9.0,10.5,11.1,10.0,12.2,13.4,quantile 1
4564,Sud-Ouest,73,Midi-Pyrénées,Toulouse,12,Aveyron,Rodez,2,Capdenac-Gare,12700,12052,44.566667,2.083333,1.86,Capdenac-Gare,73.0,12,309.0,193.0,84.0,11.0,6.0,9.0,3.0,2.0,1.0,0.0,12.1,22.1,13.5,10.1,11.0,10.6,20.3,12.3,9.6,8.9,12.9,22.8,14.2,11.7,11.3,9.3,11.9,13.9,8.9,10.6,11.8,9.5,12.7,15.0,quantile 1
4574,Sud-Ouest,73,Midi-Pyrénées,Toulouse,12,Aveyron,Rodez,2,Decazeville,12300,12089,44.55,2.25,1.28,Decazeville,73.0,12,477.0,287.0,137.0,27.0,16.0,5.0,4.0,1.0,0.0,0.0,11.6,23.0,13.5,9.9,10.9,10.6,20.6,12.4,9.8,9.9,12.3,23.5,14.3,10.1,11.1,9.5,11.3,13.2,9.0,10.1,11.9,9.8,11.9,14.2,quantile 1
